{'area': '交城县', 'detail_info': {'tag': '美食;中餐厅', 'children': [], 'type': 'cater', 'overall_rating': '5.0', 'detail_url': 'http://api.map.baidu.com/place/detail?uid=f20644eac971cb0ff5e73be9&output=html&source=placeapi_v2', 'comment_num': '2'}, 'uid': 'f20644eac971cb0ff5e73be9', 'address': '山西省吕梁市交城县S219', 'detail': 1, 'location': {'lng': 112.00436, 'lat': 37.532043}, 'telephone': '18235803723', 'name': '晋源饭店', 'city': '吕梁市', 'province': '山西省'}
{'area': '交城县', 'detail_info': {'type': 'cater', 'tag': '美食;中餐厅', 'detail_url': 'http://api.map.baidu.com/place/detail?uid=d7a9ffbf8f5d2c2be60738e8&output=html&source=placeapi_v2', 'children': []}, 'uid': 'd7a9ffbf8f5d2c2be60738e8', 'address': '219省道东50米', 'detail': 1, 'location': {'lng': 111.988283, 'lat': 37.555406}, 'name': '利路饭店', 'city': '吕梁市', 'province': '山西省'}
{'area': '交城县', 'detail_info': {'type': 'cater', 'tag': '美食;小吃快餐店', 'detail_url': 'http://api.map.baidu.com/place/detail?uid=acdb83380518e684b917e70c&output=html&source=placeapi_v2', 'children': []}, 'uid': 'acdb83380518e684b917e70c', 'address': '219省道与320省道交叉口东南100米', 'detail': 1, 'location': {'lng': 111.972833, 'lat': 37.553265}, 'telephone': '13994826437', 'name': '光明快餐', 'city': '吕梁市', 'province': '山西省'}
{'area': '交城县', 'detail_info': {'overall_rating': '4.5', 'price': '48.0', 'navi_location': {'lng': 112.17925110504, 'lat': 37.557081865069}, 'children': [], 'type': 'cater', 'tag': '美食;中餐厅', 'detail_url': 'http://api.map.baidu.com/place/detail?uid=2ae23d6ac23b5ff72c4733d9&output=html&source=placeapi_v2', 'comment_num': '27'}, 'uid': '2ae23d6ac23b5ff72c4733d9', 'address': '山西省吕梁市交城县东环路', 'detail': 1, 'location': {'lng': 112.179471, 'lat': 37.557164}, 'street_id': '2ae23d6ac23b5ff72c4733d9', 'telephone': '(0358)3902888', 'name': '食在吕梁', 'city': '吕梁市', 'province': '山西省'}
{'area': '交城县', 'detail_info': {'type': 'cater', 'tag': '美食;中餐厅', 'detail_url': 'http://api.map.baidu.com/place/detail?uid=955980544a426e9dfe0eb07b&output=html&source=placeapi_v2', 'children': []}, 'uid': '955980544a426e9dfe0eb07b', 'address': '山西省吕梁市交城县金王酒店附近', 'detail': 1, 'location': {'lng': 112.187289, 'lat': 37.538615}, 'name': '晨龙酒家', 'city': '吕梁市', 'province': '山西省'}
{'area': '交城县', 'detail_info': {'type': 'cater', 'tag': '美食;小吃快餐店', 'detail_url': 'http://api.map.baidu.com/place/detail?uid=e5e7531c044abb289a00503e&output=html&source=placeapi_v2', 'children': []}, 'uid': 'e5e7531c044abb289a00503e', 'address': '吕梁市交城县', 'detail': 1, 'location': {'lng': 112.18938, 'lat': 37.538545}, 'name': '乡村面馆', 'city': '吕梁市', 'province': '山西省'}
{'area': '交城县', 'detail_info': {'type': 'life', 'image_num': '1', 'tag': '美食;小吃快餐店', 'detail_url': 'http://api.map.baidu.com/place/detail?uid=2d357ce1d8c9b960283a9f3d&output=html&source=placeapi_v2', 'children': []}, 'uid': '2d357ce1d8c9b960283a9f3d', 'address': '天宁镇东环路中通汽贸对面大唐足浴隔壁', 'detail': 1, 'location': {'lng': 112.179454, 'lat': 37.557757}, 'name': '继龙面馆', 'city': '吕梁市', 'province': '山西省'}
{'area': '文水县', 'detail_info': {'type': 'cater', 'tag': '美食;中餐厅', 'detail_url': 'http://api.map.baidu.com/place/detail?uid=5b7acc1089c2527ea80dd850&output=html&source=placeapi_v2', 'children': []}, 'uid': '5b7acc1089c2527ea80dd850', 'address': '山西省吕梁市文水县段马线与柳开线交叉口(433县道)', 'detail': 1, 'location': {'lng': 112.250455, 'lat': 37.46651}, 'telephone': '13835818909', 'name': '清香园饭店', 'city': '吕梁市', 'province': '山西省'}
{'area': '交城县', 'detail_info': {'type': 'cater', 'overall_rating': '0.0', 'tag': '美食;中餐厅', 'detail_url': 'http://api.map.baidu.com/place/detail?uid=e5063543b1f8cd36901fc9f3&output=html&source=placeapi_v2', 'children': []}, 'uid': 'e5063543b1f8cd36901fc9f3', 'address': '交城县同一首歌量贩式KTV旁(维克多酒店)', 'detail': 1, 'location': {'lng': 112.179435, 'lat': 37.556361}, 'telephone': '15935801900', 'name': '蒙骨香', 'city': '吕梁市', 'province': '山西省'}
{'area': '交城县', 'detail_info': {'tag': '美食;中餐厅', 'children': [], 'type': 'cater', 'overall_rating': '5.0', 'detail_url': 'http://api.map.baidu.com/place/detail?uid=7f51e6aac4fbd59975e5b692&output=html&source=placeapi_v2', 'comment_num': '2'}, 'uid': '7f51e6aac4fbd59975e5b692', 'address': '东环路', 'detail': 1, 'location': {'lng': 112.178972, 'lat': 37.556517}, 'telephone': '(0358)3593333', 'name': '知味轩火锅店', 'city': '吕梁市', 'province': '山西省'}
{'area': '交城县', 'detail_info': {'type': 'cater', 'tag': '美食;中餐厅', 'detail_url': 'http://api.map.baidu.com/place/detail?uid=12aa8a6dbd2018a4abf0cd61&output=html&source=placeapi_v2', 'children': []}, 'uid': '12aa8a6dbd2018a4abf0cd61', 'address': '东环路,开元醋业旁', 'detail': 1, 'location': {'lng': 112.179091, 'lat': 37.558569}, 'telephone': '17535805757', 'name': '村里人家一锅出', 'city': '吕梁市', 'province': '山西省'}
{'area': '交城县', 'detail_info': {'type': 'cater', 'tag': '美食;中餐厅', 'detail_url': 'http://api.map.baidu.com/place/detail?uid=4ee64e77bf917cc85d0d0264&output=html&source=placeapi_v2', 'children': []}, 'uid': '4ee64e77bf917cc85d0d0264', 'address': '吕梁市交城县东正街与东环路交叉口北100米', 'detail': 1, 'location': {'lng': 112.179444, 'lat': 37.556789}, 'name': '祥云汇食府', 'city': '吕梁市', 'province': '山西省'}
{'area': '交城县', 'detail_info': {'tag': '美食;中餐厅', 'children': [], 'type': 'cater', 'overall_rating': '3.0', 'detail_url': 'http://api.map.baidu.com/place/detail?uid=d8020b30d0f6286d3686f41d&output=html&source=placeapi_v2', 'comment_num': '1'}, 'uid': 'd8020b30d0f6286d3686f41d', 'address': '吕梁市交城县天宁镇南环路东环路十字桥东', 'detail': 1, 'location': {'lng': 112.181246, 'lat': 37.547188}, 'name': '鱼一哥', 'city': '吕梁市', 'province': '山西省'}
{'area': '交城县', 'detail_info': {'tag': '美食;中餐厅', 'children': [], 'type': 'cater', 'overall_rating': '4.5', 'detail_url': 'http://api.map.baidu.com/place/detail?uid=d3822d6bfe830a3500ff2d2e&output=html&source=placeapi_v2', 'comment_num': '2'}, 'uid': 'd3822d6bfe830a3500ff2d2e', 'address': '吕梁市交城县434县道西50米', 'detail': 1, 'location': {'lng': 112.1996, 'lat': 37.530999}, 'name': '清华源饭庄', 'city': '吕梁市', 'province': '山西省'}
{'area': '交城县', 'detail_info': {'tag': '美食;中餐厅', 'children': [], 'type': 'cater', 'overall_rating': '5.0', 'detail_url': 'http://api.map.baidu.com/place/detail?uid=196016054338cbe0081cc72e&output=html&source=placeapi_v2', 'comment_num': '1'}, 'uid': '196016054338cbe0081cc72e', 'address': '吕梁市交城县美锦路与盛锦路交叉路口向东约150米', 'detail': 1, 'location': {'lng': 112.250627, 'lat': 37.558171}, 'telephone': '13994825127', 'name': '兴盛饭店', 'city': '吕梁市', 'province': '山西省'}
{'area': '文水县', 'detail_info': {'type': 'cater', 'tag': '美食;中餐厅', 'detail_url': 'http://api.map.baidu.com/place/detail?uid=ab36570d11c47e9ee50738d5&output=html&source=placeapi_v2', 'children': []}, 'uid': 'ab36570d11c47e9ee50738d5', 'address': '450县道西50米', 'detail': 1, 'location': {'lng': 112.18587, 'lat': 37.464964}, 'name': '五儿饭店', 'city': '吕梁市', 'province': '山西省'}
{'area': '文水县', 'detail_info': {'type': 'cater', 'tag': '美食;中餐厅', 'detail_url': 'http://api.map.baidu.com/place/detail?uid=1b4a289c12e844c616c9058e&output=html&source=placeapi_v2', 'children': []}, 'uid': '1b4a289c12e844c616c9058e', 'address': '南安村', 'detail': 1, 'location': {'lng': 112.258696, 'lat': 37.49336}, 'name': '三益饭店', 'city': '吕梁市', 'province': '山西省'}
{'area': '文水县', 'detail_info': {'type': 'cater', 'overall_rating': '0.0', 'tag': '美食;中餐厅', 'detail_url': 'http://api.map.baidu.com/place/detail?uid=fa8ab805060417854151c092&output=html&source=placeapi_v2', 'children': []}, 'uid': 'fa8ab805060417854151c092', 'address': '433县道附近', 'detail': 1, 'location': {'lng': 112.251688, 'lat': 37.468767}, 'name': '兴旺乡村饭庄', 'city': '吕梁市', 'province': '山西省'}
{'area': '交城县', 'detail_info': {'type': 'cater', 'image_num': '1', 'tag': '美食;中餐厅', 'detail_url': 'http://api.map.baidu.com/place/detail?uid=12c397c4b8128c4e38221cf1&output=html&source=placeapi_v2', 'children': []}, 'uid': '12c397c4b8128c4e38221cf1', 'address': '东环路西中通汽贸北', 'detail': 1, 'location': {'lng': 112.178925, 'lat': 37.558102}, 'name': '大咖自助涮烤', 'city': '吕梁市', 'province': '山西省'}
{'area': '文水县', 'detail_info': {'type': 'cater', 'tag': '美食;中餐厅', 'detail_url': 'http://api.map.baidu.com/place/detail?uid=247b185b46fc6709a8059db7&output=html&source=placeapi_v2', 'children': []}, 'uid': '247b185b46fc6709a8059db7', 'address': '山西省吕梁市文水县汾河灌溉管理局西三支管理所', 'detail': 1, 'location': {'lng': 112.25461, 'lat': 37.474814}, 'name': '驾校饭店', 'city': '吕梁市', 'province': '山西省'}
{'area': '文水县', 'detail_info': {'type': 'cater', 'tag': '美食;中餐厅', 'detail_url': 'http://api.map.baidu.com/place/detail?uid=4a3695bd17b0d3b52afc48b4&output=html&source=placeapi_v2', 'children': []}, 'uid': '4a3695bd17b0d3b52afc48b4', 'address': '吕梁市文水县433县道西50米', 'detail': 1, 'location': {'lng': 112.251446, 'lat': 37.468363}, 'telephone': '13546269537,(0358)3083060', 'name': '三晋农家菜馆', 'city': '吕梁市', 'province': '山西省'}
{'area': '文水县', 'detail_info': {'type': 'cater', 'overall_rating': '0.0', 'tag': '美食;小吃快餐店', 'detail_url': 'http://api.map.baidu.com/place/detail?uid=17fb878fe2fbba25d8131834&output=html&source=placeapi_v2', 'children': []}, 'uid': '17fb878fe2fbba25d8131834', 'address': '山西省吕梁市文水县南安镇(耀华灯饰城斜对面)', 'detail': 1, 'location': {'lng': 112.261539, 'lat': 37.494331}, 'telephone': '18534621011', 'name': '大脸鸡排(南安店)', 'city': '吕梁市', 'province': '山西省'}
{'area': '清徐县', 'detail_info': {'type': 'cater', 'tag': '美食;中餐厅', 'detail_url': 'http://api.map.baidu.com/place/detail?uid=0e81114da1fb0ebf4f6d466d&output=html&source=placeapi_v2', 'children': []}, 'uid': '0e81114da1fb0ebf4f6d466d', 'address': '西内环路与914县道交叉口东100米', 'detail': 1, 'location': {'lng': 112.573796, 'lat': 37.553345}, 'name': '二只饭店', 'city': '太原市', 'province': '山西省'}
{'area': '清徐县', 'detail_info': {'tag': '美食;中餐厅', 'children': [], 'type': 'cater', 'overall_rating': '5.0', 'detail_url': 'http://api.map.baidu.com/place/detail?uid=c25bfdc176c747a40aa8d4c3&output=html&source=placeapi_v2', 'comment_num': '2'}, 'uid': 'c25bfdc176c747a40aa8d4c3', 'address': '东环北路与020乡道交叉口南200米', 'detail': 1, 'location': {'lng': 112.614703, 'lat': 37.534528}, 'name': '大常村晨聚德酒楼', 'city': '太原市', 'province': '山西省'}
{'area': '清徐县', 'detail_info': {'tag': '美食;中餐厅', 'children': [], 'type': 'cater', 'overall_rating': '4.5', 'detail_url': 'http://api.map.baidu.com/place/detail?uid=d1b904693c9b08f88415414a&output=html&source=placeapi_v2', 'comment_num': '2'}, 'uid': 'd1b904693c9b08f88415414a', 'address': '山西省太原市清徐县徐太路', 'detail': 1, 'location': {'lng': 112.530398, 'lat': 37.534924}, 'name': '德盛源酒家', 'city': '太原市', 'province': '山西省'}
{'area': '清徐县', 'detail_info': {'tag': '美食;中餐厅', 'children': [], 'type': 'cater', 'overall_rating': '0.0', 'detail_url': 'http://api.map.baidu.com/place/detail?uid=2ca7938607669739c03644f9&output=html&source=placeapi_v2', 'comment_num': '1'}, 'uid': '2ca7938607669739c03644f9', 'address': '山西省太原市清徐县太太路', 'detail': 1, 'location': {'lng': 112.542962, 'lat': 37.558246}, 'name': '琦深源饭店', 'city': '太原市', 'province': '山西省'}
{'area': '清徐县', 'detail_info': {'type': 'cater', 'tag': '美食;中餐厅', 'detail_url': 'http://api.map.baidu.com/place/detail?uid=9b3e3548270a688c33169b97&output=html&source=placeapi_v2', 'children': []}, 'uid': '9b3e3548270a688c33169b97', 'address': '集义乡914县道山西石油东', 'detail': 1, 'location': {'lng': 112.572424, 'lat': 37.553456}, 'name': '瑞明饭店', 'city': '太原市', 'province': '山西省'}
{'area': '清徐县', 'detail_info': {'type': 'cater', 'tag': '美食;中餐厅', 'detail_url': 'http://api.map.baidu.com/place/detail?uid=a02e69393fb2f11e081cc7f4&output=html&source=placeapi_v2', 'children': []}, 'uid': 'a02e69393fb2f11e081cc7f4', 'address': '山西省太原市清徐县太太路', 'detail': 1, 'location': {'lng': 112.54204, 'lat': 37.556877}, 'name': '川府重庆老火锅', 'city': '太原市', 'province': '山西省'}
{'area': '清徐县', 'detail_info': {'type': 'cater', 'tag': '美食;中餐厅', 'detail_url': 'http://api.map.baidu.com/place/detail?uid=fcc1c300ba755f7a1e1d1122&output=html&source=placeapi_v2', 'children': []}, 'uid': 'fcc1c300ba755f7a1e1d1122', 'address': '山西省太原市清徐县太太路', 'detail': 1, 'location': {'lng': 112.542962, 'lat': 37.558246}, 'telephone': '13453449798', 'name': '刚刚好一品大盘鸡', 'city': '太原市', 'province': '山西省'}
{'area': '太谷区', 'detail_info': {'tag': '美食;中餐厅', 'navi_location': {'lng': 112.79688395636, 'lat': 37.490868633165}, 'children': [], 'type': 'cater', 'overall_rating': '3.5', 'detail_url': 'http://api.map.baidu.com/place/detail?uid=7b3dd297dcc5c60dc7f50d08&output=html&source=placeapi_v2', 'comment_num': '4'}, 'uid': '7b3dd297dcc5c60dc7f50d08', 'address': '102省道附近', 'detail': 1, 'location': {'lng': 112.796057, 'lat': 37.492755}, 'telephone': '13663645108', 'name': '大众饭店', 'city': '晋中市', 'province': '山西省'}
{'area': '榆次区', 'detail_info': {'type': 'cater', 'tag': '美食;中餐厅', 'detail_url': 'http://api.map.baidu.com/place/detail?uid=5775196d5255fa2326d2bbd6&output=html&source=placeapi_v2', 'children': []}, 'uid': '5775196d5255fa2326d2bbd6', 'address': '山西省晋中市榆次区G108(京昆线)', 'detail': 1, 'location': {'lng': 112.691977, 'lat': 37.551164}, 'name': '星都啤酒鸭麻辣鱼', 'city': '晋中市', 'province': '山西省'}
{'area': '榆次区', 'detail_info': {'tag': '美食;中餐厅', 'children': [], 'type': 'cater', 'overall_rating': '5.0', 'detail_url': 'http://api.map.baidu.com/place/detail?uid=70966e3849361d94c6effbfe&output=html&source=placeapi_v2', 'comment_num': '1'}, 'uid': '70966e3849361d94c6effbfe', 'address': '山西省晋中市榆次区东阳镇X914(旧)玉昌家具城北', 'detail': 1, 'location': {'lng': 112.691848, 'lat': 37.550229}, 'name': '香满楼', 'city': '晋中市', 'province': '山西省'}
{'area': '榆次区', 'detail_info': {'type': 'cater', 'tag': '美食;小吃快餐店', 'navi_location': {'lng': 112.69140124392, 'lat': 37.547484504526}, 'children': [], 'detail_url': 'http://api.map.baidu.com/place/detail?uid=bf76dad21324d3dac26c14bd&output=html&source=placeapi_v2'}, 'uid': 'bf76dad21324d3dac26c14bd', 'address': '山西省晋中市榆次区G108(京昆线)', 'detail': 1, 'location': {'lng': 112.691207, 'lat': 37.547567}, 'telephone': '18650658328', 'name': '沙县小吃', 'city': '晋中市', 'province': '山西省'}
{'area': '榆次区', 'detail_info': {'tag': '美食;中餐厅', 'children': [], 'type': 'cater', 'overall_rating': '4.0', 'detail_url': 'http://api.map.baidu.com/place/detail?uid=65eb53393d3c19378505bf54&output=html&source=placeapi_v2', 'comment_num': '2'}, 'uid': '65eb53393d3c19378505bf54', 'address': '东阳镇人民政府东100米', 'detail': 1, 'location': {'lng': 112.685098, 'lat': 37.547571}, 'name': '聚福楼', 'city': '晋中市', 'province': '山西省'}
{'area': '太谷区', 'detail_info': {'tag': '美食;中餐厅', 'children': [], 'type': 'cater', 'overall_rating': '5.0', 'detail_url': 'http://api.map.baidu.com/place/detail?uid=ac59e87ae898fe8d05fef559&output=html&source=placeapi_v2', 'comment_num': '2'}, 'uid': 'ac59e87ae898fe8d05fef559', 'address': '任村乡政府南侧', 'detail': 1, 'location': {'lng': 112.728182, 'lat': 37.535298}, 'telephone': '(0354)6440056', 'name': '影视酒家', 'city': '晋中市', 'province': '山西省'}
{'area': '榆次区', 'detail_info': {'tag': '美食;中餐厅', 'children': [], 'type': 'cater', 'overall_rating': '0.0', 'detail_url': 'http://api.map.baidu.com/place/detail?uid=0e2f2bbf0e7c0f32f50e772a&output=html&source=placeapi_v2', 'comment_num': '1'}, 'uid': '0e2f2bbf0e7c0f32f50e772a', 'address': '山西省晋中市榆次区东阳镇X914(旧)税苑酒家附近', 'detail': 1, 'location': {'lng': 112.691648, 'lat': 37.546599}, 'telephone': '(0354)2753304', 'name': '广武饭店', 'city': '晋中市', 'province': '山西省'}
{'area': '榆次区', 'detail_info': {'type': 'cater', 'tag': '美食;中餐厅', 'detail_url': 'http://api.map.baidu.com/place/detail?uid=ba082a02a7c93f3379dbd2c2&output=html&source=placeapi_v2', 'children': []}, 'uid': 'ba082a02a7c93f3379dbd2c2', 'address': 'X914东阳镇彭村学校东', 'detail': 1, 'location': {'lng': 112.691496, 'lat': 37.543015}, 'telephone': '13383548287', 'name': '玉源饭店', 'city': '晋中市', 'province': '山西省'}
{'area': '榆次区', 'detail_info': {'tag': '美食;中餐厅', 'children': [], 'type': 'cater', 'overall_rating': '5.0', 'detail_url': 'http://api.map.baidu.com/place/detail?uid=d2e52b3bbfc80e2d3a04b13f&output=html&source=placeapi_v2', 'comment_num': '2'}, 'uid': 'd2e52b3bbfc80e2d3a04b13f', 'address': '晋中市榆次区京昆线(凯隆花苑东北侧约250米)', 'detail': 1, 'location': {'lng': 112.691338, 'lat': 37.551962}, 'name': '溜尖宏兴饭店', 'city': '晋中市', 'province': '山西省'}
{'area': '榆次区', 'detail_info': {'type': 'cater', 'tag': '美食;中餐厅', 'detail_url': 'http://api.map.baidu.com/place/detail?uid=9bfcb2144bdf41f6fe0eb05a&output=html&source=placeapi_v2', 'children': []}, 'uid': '9bfcb2144bdf41f6fe0eb05a', 'address': '108国道东50米', 'detail': 1, 'location': {'lng': 112.691943, 'lat': 37.550936}, 'name': '华源饭店', 'city': '晋中市', 'province': '山西省'}
{'area': '榆次区', 'detail_info': {'tag': '美食;中餐厅', 'children': [], 'type': 'cater', 'overall_rating': '5.0', 'detail_url': 'http://api.map.baidu.com/place/detail?uid=09e39f82143714d500ec0190&output=html&source=placeapi_v2', 'comment_num': '4'}, 'uid': '09e39f82143714d500ec0190', 'address': '晋中市榆次区108国道与914县道交叉口南200米', 'detail': 1, 'location': {'lng': 112.691143, 'lat': 37.54331}, 'name': '文昌大碗面', 'city': '晋中市', 'province': '山西省'}
{'area': '太谷区', 'detail_info': {'type': 'life', 'image_num': '1', 'tag': '美食;中餐厅', 'detail_url': 'http://api.map.baidu.com/place/detail?uid=1842fdf63fb02aeb74026907&output=html&source=placeapi_v2', 'children': []}, 'uid': '1842fdf63fb02aeb74026907', 'address': '102省道与363县道交叉口东150米', 'detail': 1, 'location': {'lng': 112.79795, 'lat': 37.490523}, 'telephone': '18603547670', 'name': '田园农家酒馆', 'city': '晋中市', 'province': '山西省'}
{'area': '榆次区', 'detail_info': {'tag': '美食;中餐厅', 'children': [], 'type': 'cater', 'overall_rating': '0.0', 'detail_url': 'http://api.map.baidu.com/place/detail?uid=0c27a71d2e0645f6157643a1&output=html&source=placeapi_v2', 'comment_num': '1'}, 'uid': '0c27a71d2e0645f6157643a1', 'address': '山西省晋中市榆次区东阳镇X914(旧)玉昌家具城北', 'detail': 1, 'location': {'lng': 112.691894, 'lat': 37.550139}, 'name': '晋阳饭店', 'city': '晋中市', 'province': '山西省'}
{'area': '榆次区', 'detail_info': {'type': 'cater', 'tag': '美食;其他', 'detail_url': 'http://api.map.baidu.com/place/detail?uid=bf91a26b9b13cbd2ab059d85&output=html&source=placeapi_v2', 'children': []}, 'uid': 'bf91a26b9b13cbd2ab059d85', 'address': '晋中市榆次区108国道与914县道交叉口南200米', 'detail': 1, 'location': {'lng': 112.690917, 'lat': 37.545513}, 'telephone': '13233052380', 'name': '桐年干货', 'city': '晋中市', 'province': '山西省'}
{'area': '太谷区', 'detail_info': {'tag': '美食;中餐厅', 'children': [], 'type': 'cater', 'overall_rating': '5.0', 'detail_url': 'http://api.map.baidu.com/place/detail?uid=7f556fcc11e31b35f4e73b9b&output=html&source=placeapi_v2', 'comment_num': '2'}, 'uid': '7f556fcc11e31b35f4e73b9b', 'address': '山西省晋中市太谷区胡村镇范白线荣发加油站西100米', 'detail': 1, 'location': {'lng': 112.68064, 'lat': 37.514914}, 'name': '春友饭店(011乡道店)', 'city': '晋中市', 'province': '山西省'}
{'area': '榆次区', 'detail_info': {'type': 'life', 'image_num': '1', 'tag': '美食;小吃快餐店', 'detail_url': 'http://api.map.baidu.com/place/detail?uid=e3eb82ac7bcd93a3a20464c6&output=html&source=placeapi_v2', 'children': []}, 'uid': 'e3eb82ac7bcd93a3a20464c6', 'address': '108国道西50米', 'detail': 1, 'location': {'lng': 112.690906, 'lat': 37.543311}, 'telephone': '18635941792', 'name': '杨记腊汁肉夹馍', 'city': '晋中市', 'province': '山西省'}
{'area': '太谷区', 'detail_info': {'type': 'cater', 'tag': '美食;中餐厅', 'detail_url': 'http://api.map.baidu.com/place/detail?uid=16971f379bf83e06373a712c&output=html&source=placeapi_v2', 'children': []}, 'uid': '16971f379bf83e06373a712c', 'address': '山西省晋中市太谷区G108(京昆线)', 'detail': 1, 'location': {'lng': 112.680353, 'lat': 37.515207}, 'name': '武味居酒家', 'city': '晋中市', 'province': '山西省'}
{'area': '太谷区', 'detail_info': {'tag': '美食;中餐厅', 'children': [], 'type': 'cater', 'overall_rating': '5.0', 'detail_url': 'http://api.map.baidu.com/place/detail?uid=848a43cdbfb24e7fc7f025f0&output=html&source=placeapi_v2', 'comment_num': '1'}, 'uid': '848a43cdbfb24e7fc7f025f0', 'address': '山西省晋中市太谷区范村口公交站(范白线北)', 'detail': 1, 'location': {'lng': 112.679439, 'lat': 37.514583}, 'name': '百姓饭店', 'city': '晋中市', 'province': '山西省'}
{'area': '榆次区', 'detail_info': {'type': 'cater', 'tag': '美食;中餐厅', 'detail_url': 'http://api.map.baidu.com/place/detail?uid=acfd6ea487d9711933f71d2e&output=html&source=placeapi_v2', 'children': []}, 'uid': 'acfd6ea487d9711933f71d2e', 'address': '东阳镇北社东岂线海川旅店北150米', 'detail': 1, 'location': {'lng': 112.691929, 'lat': 37.550623}, 'telephone': '15635462727', 'name': '百姓渔庄', 'city': '晋中市', 'province': '山西省'}
{'area': '榆次区', 'detail_info': {'tag': '美食;中餐厅', 'children': [], 'type': 'cater', 'overall_rating': '0.0', 'detail_url': 'http://api.map.baidu.com/place/detail?uid=dacbad0bf8684a8ca8175a5b&output=html&source=placeapi_v2', 'comment_num': '1'}, 'uid': 'dacbad0bf8684a8ca8175a5b', 'address': '山西省晋中市榆次区G108', 'detail': 1, 'location': {'lng': 112.691748, 'lat': 37.544743}, 'name': '宏兴饭店', 'city': '晋中市', 'province': '山西省'}
{'area': '榆次区', 'detail_info': {'tag': '美食;中餐厅', 'children': [], 'type': 'cater', 'overall_rating': '0.0', 'detail_url': 'http://api.map.baidu.com/place/detail?uid=bb16d9ccead35f64b7265568&output=html&source=placeapi_v2', 'comment_num': '1'}, 'uid': 'bb16d9ccead35f64b7265568', 'address': '东阳邮政所斜对面', 'detail': 1, 'location': {'lng': 112.68971, 'lat': 37.547369}, 'name': '晋生饭店', 'city': '晋中市', 'province': '山西省'}
{'area': '榆次区', 'detail_info': {'type': 'cater', 'image_num': '1', 'tag': '美食;中餐厅', 'detail_url': 'http://api.map.baidu.com/place/detail?uid=b86c3df68b41dbb0d13ce38d&output=html&source=placeapi_v2', 'children': []}, 'uid': 'b86c3df68b41dbb0d13ce38d', 'address': '山西省晋中市榆次区G108(京昆线)', 'detail': 1, 'location': {'lng': 112.691636, 'lat': 37.546357}, 'name': '剔尖馆', 'city': '晋中市', 'province': '山西省'}
{'area': '榆次区', 'detail_info': {'image_num': '4', 'tag': '美食;中餐厅', 'children': [], 'type': 'cater', 'overall_rating': '0.0', 'detail_url': 'http://api.map.baidu.com/place/detail?uid=c04996ec450e83504e554782&output=html&source=placeapi_v2', 'comment_num': '1'}, 'uid': 'c04996ec450e83504e554782', 'address': '山西省晋中市榆次区X914', 'detail': 1, 'location': {'lng': 112.689516, 'lat': 37.546994}, 'name': '渔人杰(东阳店)', 'city': '晋中市', 'province': '山西省'}
{'area': '太谷区', 'detail_info': {'type': 'cater', 'tag': '美食;中餐厅', 'detail_url': 'http://api.map.baidu.com/place/detail?uid=07a4e26a97ec8ee85fbe86e7&output=html&source=placeapi_v2', 'children': []}, 'uid': '07a4e26a97ec8ee85fbe86e7', 'address': '108国道范村口对面', 'detail': 1, 'location': {'lng': 112.679733, 'lat': 37.514735}, 'telephone': '15934408578', 'name': '凯凯饭店', 'city': '晋中市', 'province': '山西省'}
{'area': '榆次区', 'detail_info': {'type': 'cater', 'tag': '美食;中餐厅', 'detail_url': 'http://api.map.baidu.com/place/detail?uid=de2ccfe158a2a646dbd89150&output=html&source=placeapi_v2', 'children': []}, 'uid': 'de2ccfe158a2a646dbd89150', 'address': '东阳村东清路43号(中国联通旁)', 'detail': 1, 'location': {'lng': 112.688698, 'lat': 37.547022}, 'telephone': '13203542538', 'name': '自助小火锅', 'city': '晋中市', 'province': '山西省'}
{'area': '榆次区', 'detail_info': {'type': 'cater', 'tag': '美食;中餐厅', 'detail_url': 'http://api.map.baidu.com/place/detail?uid=d17c12a920f27a1b57bfffe7&output=html&source=placeapi_v2', 'children': []}, 'uid': 'd17c12a920f27a1b57bfffe7', 'address': '002乡道与914县道交叉口东150米', 'detail': 1, 'location': {'lng': 112.688734, 'lat': 37.547452}, 'name': '阿会鱼头', 'city': '晋中市', 'province': '山西省'}
{'area': '榆次区', 'detail_info': {'type': 'cater', 'tag': '美食;小吃快餐店', 'detail_url': 'http://api.map.baidu.com/place/detail?uid=3bbba5cc438f3cb1abf0cd18&output=html&source=placeapi_v2', 'children': []}, 'uid': '3bbba5cc438f3cb1abf0cd18', 'address': '晋中市榆次区', 'detail': 1, 'location': {'lng': 112.687701, 'lat': 37.546007}, 'name': '晋南饼子', 'city': '晋中市', 'province': '山西省'}
{'area': '榆次区', 'detail_info': {'type': 'cater', 'tag': '美食;中餐厅', 'detail_url': 'http://api.map.baidu.com/place/detail?uid=8254c2185dc03d6095f08ce5&output=html&source=placeapi_v2', 'children': []}, 'uid': '8254c2185dc03d6095f08ce5', 'address': '东阳镇政府东50米路北', 'detail': 1, 'location': {'lng': 112.684413, 'lat': 37.547673}, 'telephone': '18234414498', 'name': '烙饼拌汤村', 'city': '晋中市', 'province': '山西省'}
{'area': '榆次区', 'detail_info': {'type': 'cater', 'tag': '美食;中餐厅', 'detail_url': 'http://api.map.baidu.com/place/detail?uid=ae912ff3b99dfa9344572619&output=html&source=placeapi_v2', 'children': []}, 'uid': 'ae912ff3b99dfa9344572619', 'address': '108国道与914县道交叉口北100米', 'detail': 1, 'location': {'lng': 112.691665, 'lat': 37.546186}, 'telephone': '(0354)2753889', 'name': '私房菜', 'city': '晋中市', 'province': '山西省'}
{'area': '榆次区', 'detail_info': {'type': 'cater', 'tag': '美食;中餐厅', 'detail_url': 'http://api.map.baidu.com/place/detail?uid=c908cb0771aadaa596ca07b8&output=html&source=placeapi_v2', 'children': []}, 'uid': 'c908cb0771aadaa596ca07b8', 'address': '东阳村东清路', 'detail': 1, 'location': {'lng': 112.69036, 'lat': 37.547394}, 'name': '九儿火锅', 'city': '晋中市', 'province': '山西省'}
{'area': '榆次区', 'detail_info': {'type': 'cater', 'tag': '美食;中餐厅', 'detail_url': 'http://api.map.baidu.com/place/detail?uid=cfc915129111c3e7d6b74e70&output=html&source=placeapi_v2', 'children': []}, 'uid': 'cfc915129111c3e7d6b74e70', 'address': '山西省晋中市榆次区G108(京昆线)', 'detail': 1, 'location': {'lng': 112.692051, 'lat': 37.55475}, 'name': '老太原羊汤馆', 'city': '晋中市', 'province': '山西省'}
{'area': '榆次区', 'detail_info': {'image_num': '1', 'tag': '美食', 'navi_location': {'lng': 112.68797801991, 'lat': 37.547633262059}, 'children': [], 'type': 'cater', 'overall_rating': '0.0', 'detail_url': 'http://api.map.baidu.com/place/detail?uid=1365a756bd7b6041c8213de4&output=html&source=placeapi_v2', 'comment_num': '2'}, 'uid': '1365a756bd7b6041c8213de4', 'address': '山西省晋中市榆次区X914', 'detail': 1, 'location': {'lng': 112.68789, 'lat': 37.547795}, 'name': '善缘花馍', 'city': '晋中市', 'province': '山西省'}
{'area': '榆次区', 'detail_info': {'type': 'cater', 'overall_rating': '0.0', 'tag': '美食;中餐厅', 'detail_url': 'http://api.map.baidu.com/place/detail?uid=17b371aa68bd4dc36cc02c77&output=html&source=placeapi_v2', 'children': []}, 'uid': '17b371aa68bd4dc36cc02c77', 'address': '山西省晋中市榆次区X914', 'detail': 1, 'location': {'lng': 112.688543, 'lat': 37.547351}, 'name': '巴蜀串串香', 'city': '晋中市', 'province': '山西省'}
{'area': '榆次区', 'detail_info': {'type': 'cater', 'tag': '美食;中餐厅', 'detail_url': 'http://api.map.baidu.com/place/detail?uid=8b3c02fda5075d30725e8085&output=html&source=placeapi_v2', 'children': []}, 'uid': '8b3c02fda5075d30725e8085', 'address': '山西省晋中市榆次区G108(京昆线)', 'detail': 1, 'location': {'lng': 112.691668, 'lat': 37.544087}, 'name': '如意鱼火锅', 'city': '晋中市', 'province': '山西省'}
{'area': '榆次区', 'detail_info': {'tag': '美食;小吃快餐店', 'children': [], 'type': 'cater', 'overall_rating': '4.0', 'detail_url': 'http://api.map.baidu.com/place/detail?uid=b3e57f95e0091a6338e4a660&output=html&source=placeapi_v2', 'comment_num': '2'}, 'uid': 'b3e57f95e0091a6338e4a660', 'address': '山西省晋中市榆次区东阳镇X914(旧)税苑酒家附近', 'detail': 1, 'location': {'lng': 112.691137, 'lat': 37.545906}, 'telephone': '(0354)2753889', 'name': '毛儿面馆', 'city': '晋中市', 'province': '山西省'}
{'area': '榆次区', 'detail_info': {'type': 'cater', 'tag': '美食;其他', 'detail_url': 'http://api.map.baidu.com/place/detail?uid=40d32b1460d60350250bd022&output=html&source=placeapi_v2', 'children': []}, 'uid': '40d32b1460d60350250bd022', 'address': '002乡道与914县道交叉口东100米', 'detail': 1, 'location': {'lng': 112.687755, 'lat': 37.546887}, 'telephone': '15581764488', 'name': '志伟冻品烧烤刷锅大全', 'city': '晋中市', 'province': '山西省'}
{'area': '榆次区', 'detail_info': {'type': 'cater', 'tag': '美食;小吃快餐店', 'detail_url': 'http://api.map.baidu.com/place/detail?uid=7643dcece628d8bbb8bd636b&output=html&source=placeapi_v2', 'children': []}, 'uid': '7643dcece628d8bbb8bd636b', 'address': '晋中市榆次区914县道南50米', 'detail': 1, 'location': {'lng': 112.681566, 'lat': 37.547781}, 'name': '擦酥饼', 'city': '晋中市', 'province': '山西省'}
{'area': '榆次区', 'detail_info': {'type': 'cater', 'tag': '美食;小吃快餐店', 'detail_url': 'http://api.map.baidu.com/place/detail?uid=62d5cafc8060b8943c9a5ef1&output=html&source=placeapi_v2', 'children': []}, 'uid': '62d5cafc8060b8943c9a5ef1', 'address': '晋中市榆次区', 'detail': 1, 'location': {'lng': 112.687751, 'lat': 37.545532}, 'name': '口口味香小吃', 'city': '晋中市', 'province': '山西省'}
{'area': '榆次区', 'detail_info': {'type': 'cater', 'tag': '美食;小吃快餐店', 'detail_url': 'http://api.map.baidu.com/place/detail?uid=ae4e3c8743655c379ff77923&output=html&source=placeapi_v2', 'children': []}, 'uid': 'ae4e3c8743655c379ff77923', 'address': '山西省晋中市榆次区G108(京昆线)', 'detail': 1, 'location': {'lng': 112.6916, 'lat': 37.545599}, 'name': '小瑞大碗面', 'city': '晋中市', 'province': '山西省'}
{'area': '榆次区', 'detail_info': {'type': 'cater', 'tag': '美食;小吃快餐店', 'detail_url': 'http://api.map.baidu.com/place/detail?uid=3e9b8520cf484b73d3ff2334&output=html&source=placeapi_v2', 'children': []}, 'uid': '3e9b8520cf484b73d3ff2334', 'address': '山西省晋中市榆次区G108(京昆线)', 'detail': 1, 'location': {'lng': 112.692141, 'lat': 37.553851}, 'telephone': '18635493253', 'name': '便尖', 'city': '晋中市', 'province': '山西省'}
{'area': '交城县', 'detail_info': {'type': 'cater', 'tag': '美食;中餐厅', 'detail_url': 'http://api.map.baidu.com/place/detail?uid=d41d29f677f8fb776c3e1b73&output=html&source=placeapi_v2', 'children': []}, 'uid': 'd41d29f677f8fb776c3e1b73', 'address': '文峪河西北300米(320省道南)', 'detail': 1, 'location': {'lng': 111.920798, 'lat': 37.570645}, 'name': '汇源酒家', 'city': '吕梁市', 'province': '山西省'}
{'area': '清徐县', 'detail_info': {'tag': '美食;中餐厅', 'children': [], 'type': 'cater', 'overall_rating': '3.9', 'detail_url': 'http://api.map.baidu.com/place/detail?uid=5172c8628cd2c264f02d8347&output=html&source=placeapi_v2', 'comment_num': '14'}, 'uid': '5172c8628cd2c264f02d8347', 'address': '太原近郊东于工商所北约230米', 'detail': 1, 'location': {'lng': 112.281996, 'lat': 37.602602}, 'name': '创海饭店', 'city': '太原市', 'province': '山西省'}
{'area': '清徐县', 'detail_info': {'tag': '美食;中餐厅', 'children': [], 'type': 'cater', 'overall_rating': '0.0', 'detail_url': 'http://api.map.baidu.com/place/detail?uid=2b999111380106a84207c1ba&output=html&source=placeapi_v2', 'comment_num': '2'}, 'uid': '2b999111380106a84207c1ba', 'address': '东边路', 'detail': 1, 'location': {'lng': 112.282834, 'lat': 37.598896}, 'telephone': '13038008023', 'name': '成都印象川味老火锅', 'city': '太原市', 'province': '山西省'}
{'area': '清徐县', 'detail_info': {'type': 'cater', 'tag': '美食;中餐厅', 'detail_url': 'http://api.map.baidu.com/place/detail?uid=d8a9dd63b2c9e6980b1cc7c0&output=html&source=placeapi_v2', 'children': []}, 'uid': 'd8a9dd63b2c9e6980b1cc7c0', 'address': '太原市清徐县', 'detail': 1, 'location': {'lng': 112.33575, 'lat': 37.567398}, 'name': '启明饭店', 'city': '太原市', 'province': '山西省'}
{'area': '清徐县', 'detail_info': {'type': 'cater', 'tag': '美食;中餐厅', 'detail_url': 'http://api.map.baidu.com/place/detail?uid=a87345519d6e96d4f503b809&output=html&source=placeapi_v2', 'children': []}, 'uid': 'a87345519d6e96d4f503b809', 'address': '山西省太原市清徐县官员小区西(宏源大街北)', 'detail': 1, 'location': {'lng': 112.338224, 'lat': 37.613872}, 'telephone': '13233619815', 'name': '肉三饭店', 'city': '太原市', 'province': '山西省'}
{'area': '清徐县', 'detail_info': {'tag': '美食;中餐厅', 'children': [], 'type': 'cater', 'overall_rating': '3.0', 'detail_url': 'http://api.map.baidu.com/place/detail?uid=9b0e9e73ee139f035cbe8600&output=html&source=placeapi_v2', 'comment_num': '1'}, 'uid': '9b0e9e73ee139f035cbe8600', 'address': '三零七国道南白石河小桥西约320米路北', 'detail': 1, 'location': {'lng': 112.258852, 'lat': 37.58212}, 'telephone': '13546386656,15234000378', 'name': '中海饭店', 'city': '太原市', 'province': '山西省'}
{'area': '清徐县', 'detail_info': {'type': 'life', 'image_num': '1', 'tag': '美食;中餐厅', 'detail_url': 'http://api.map.baidu.com/place/detail?uid=4b24d39de562a9fa9e9d6865&output=html&source=placeapi_v2', 'children': []}, 'uid': '4b24d39de562a9fa9e9d6865', 'address': '凤仪街北50米', 'detail': 1, 'location': {'lng': 112.31982, 'lat': 37.599527}, 'name': '肉娃饭店', 'city': '太原市', 'province': '山西省'}
{'area': '清徐县', 'detail_info': {'type': 'cater', 'overall_rating': '0.0', 'tag': '美食;中餐厅', 'detail_url': 'http://api.map.baidu.com/place/detail?uid=157127e4ac171ac07702696c&output=html&source=placeapi_v2', 'children': []}, 'uid': '157127e4ac171ac07702696c', 'address': '237县道永和堂大药房旁', 'detail': 1, 'location': {'lng': 112.324993, 'lat': 37.628848}, 'telephone': '13453107509', 'name': '亚飞饭店', 'city': '太原市', 'province': '山西省'}
{'area': '清徐县', 'detail_info': {'type': 'cater', 'tag': '美食;中餐厅', 'detail_url': 'http://api.map.baidu.com/place/detail?uid=e3764c9ce9a5828b4e55475e&output=html&source=placeapi_v2', 'children': []}, 'uid': 'e3764c9ce9a5828b4e55475e', 'address': '八一路与G5京昆高速入口交叉口东南150米清徐县马峪乡东马峪村党支部附近', 'detail': 1, 'location': {'lng': 112.332913, 'lat': 37.629974}, 'name': '生态餐厅', 'city': '太原市', 'province': '山西省'}
{'area': '清徐县', 'detail_info': {'type': 'cater', 'tag': '美食;小吃快餐店', 'detail_url': 'http://api.map.baidu.com/place/detail?uid=2dcf38d8d39d34b4b21e3625&output=html&source=placeapi_v2', 'children': []}, 'uid': '2dcf38d8d39d34b4b21e3625', 'address': '307国道北50米', 'detail': 1, 'location': {'lng': 112.283373, 'lat': 37.589332}, 'name': '丰圣快餐', 'city': '太原市', 'province': '山西省'}
{'area': '清徐县', 'detail_info': {'type': 'cater', 'tag': '美食;中餐厅', 'detail_url': 'http://api.map.baidu.com/place/detail?uid=6fbe4a04456ad4402d4733c3&output=html&source=placeapi_v2', 'children': []}, 'uid': '6fbe4a04456ad4402d4733c3', 'address': '东于镇东边路118号', 'detail': 1, 'location': {'lng': 112.282975, 'lat': 37.598386}, 'telephone': '13613482655', 'name': '王婆大虾(东于店)', 'city': '太原市', 'province': '山西省'}
{'area': '清徐县', 'detail_info': {'type': 'cater', 'overall_rating': '0.0', 'tag': '美食;小吃快餐店', 'detail_url': 'http://api.map.baidu.com/place/detail?uid=542b4c918b16fc6e83a00cf7&output=html&source=placeapi_v2', 'children': []}, 'uid': '542b4c918b16fc6e83a00cf7', 'address': '文源路西段468', 'detail': 1, 'location': {'lng': 112.332492, 'lat': 37.630087}, 'name': '马峪面馆', 'city': '太原市', 'province': '山西省'}
{'area': '清徐县', 'detail_info': {'type': 'cater', 'tag': '美食;中餐厅', 'detail_url': 'http://api.map.baidu.com/place/detail?uid=5b116f84fa87edb6e215f9ef&output=html&source=placeapi_v2', 'children': []}, 'uid': '5b116f84fa87edb6e215f9ef', 'address': '如意大街东100米', 'detail': 1, 'location': {'lng': 112.336553, 'lat': 37.625248}, 'name': '金利饭店', 'city': '太原市', 'province': '山西省'}
{'area': '清徐县', 'detail_info': {'type': 'cater', 'image_num': '1', 'tag': '美食;中餐厅', 'detail_url': 'http://api.map.baidu.com/place/detail?uid=e533917e4d665530b11e36af&output=html&source=placeapi_v2', 'children': []}, 'uid': 'e533917e4d665530b11e36af', 'address': '山西省太原市清徐县', 'detail': 1, 'location': {'lng': 112.327189, 'lat': 37.566929}, 'name': '晋茂鑫农庄', 'city': '太原市', 'province': '山西省'}
{'area': '清徐县', 'detail_info': {'type': 'cater', 'tag': '美食;中餐厅', 'detail_url': 'http://api.map.baidu.com/place/detail?uid=f966977bda41716b97031950&output=html&source=placeapi_v2', 'children': []}, 'uid': 'f966977bda41716b97031950', 'address': '山西省太原市清徐县八一路', 'detail': 1, 'location': {'lng': 112.334646, 'lat': 37.631334}, 'name': '晓帅饭店', 'city': '太原市', 'province': '山西省'}
{'area': '清徐县', 'detail_info': {'type': 'cater', 'tag': '美食;小吃快餐店', 'detail_url': 'http://api.map.baidu.com/place/detail?uid=bd60476c1330f76588f15dbb&output=html&source=placeapi_v2', 'children': []}, 'uid': 'bd60476c1330f76588f15dbb', 'address': '东边路49号', 'detail': 1, 'location': {'lng': 112.282903, 'lat': 37.596934}, 'telephone': '13191040505', 'name': '美萍面馆', 'city': '太原市', 'province': '山西省'}
{'area': '清徐县', 'detail_info': {'type': 'cater', 'tag': '美食;小吃快餐店', 'detail_url': 'http://api.map.baidu.com/place/detail?uid=a931ecc0e940dc2eddee8b6a&output=html&source=placeapi_v2', 'children': []}, 'uid': 'a931ecc0e940dc2eddee8b6a', 'address': '山西省太原市清徐县官员小区(宏源大街南)', 'detail': 1, 'location': {'lng': 112.339023, 'lat': 37.613975}, 'name': '油酥饼', 'city': '太原市', 'province': '山西省'}
{'area': '清徐县', 'detail_info': {'tag': '美食;中餐厅', 'children': [], 'type': 'cater', 'overall_rating': '5.0', 'detail_url': 'http://api.map.baidu.com/place/detail?uid=b9c932a0485b4ffccc06a4e9&output=html&source=placeapi_v2', 'comment_num': '3'}, 'uid': 'b9c932a0485b4ffccc06a4e9', 'address': '东于村乐普大街', 'detail': 1, 'location': {'lng': 112.283625, 'lat': 37.600253}, 'telephone': '18135539867', 'name': '兄弟家常菜馆', 'city': '太原市', 'province': '山西省'}
{'area': '清徐县', 'detail_info': {'type': 'cater', 'tag': '美食;中餐厅', 'detail_url': 'http://api.map.baidu.com/place/detail?uid=1fc08c315d62495d1894c6ca&output=html&source=placeapi_v2', 'children': []}, 'uid': '1fc08c315d62495d1894c6ca', 'address': '山西省太原市清徐县G307(歧银线)', 'detail': 1, 'location': {'lng': 112.338431, 'lat': 37.596529}, 'street_id': '1fc08c315d62495d1894c6ca', 'name': '斑鱼饭馆', 'city': '太原市', 'province': '山西省'}
{'area': '清徐县', 'detail_info': {'type': 'cater', 'tag': '美食;中餐厅', 'detail_url': 'http://api.map.baidu.com/place/detail?uid=d1e95a38e5acaf1fab175a82&output=html&source=placeapi_v2', 'children': []}, 'uid': 'd1e95a38e5acaf1fab175a82', 'address': '清源镇235县道西范庄口公交站附近', 'detail': 1, 'location': {'lng': 112.337166, 'lat': 37.578739}, 'name': '丽江月饭店', 'city': '太原市', 'province': '山西省'}
{'area': '清徐县', 'detail_info': {'tag': '美食;小吃快餐店', 'navi_location': {'lng': 112.27312252707, 'lat': 37.621435967139}, 'children': [], 'type': 'cater', 'overall_rating': '0.0', 'detail_url': 'http://api.map.baidu.com/place/detail?uid=080e672f2394b048c8291549&output=html&source=placeapi_v2', 'comment_num': '1'}, 'uid': '080e672f2394b048c8291549', 'address': '山西省太原市清徐县清徐服务区(京昆高速公路南)', 'detail': 1, 'location': {'lng': 112.273141, 'lat': 37.621183}, 'name': '清徐服务区-快餐', 'city': '太原市', 'province': '山西省'}
{'area': '清徐县', 'detail_info': {'type': 'cater', 'tag': '美食;中餐厅', 'detail_url': 'http://api.map.baidu.com/place/detail?uid=6a294964d218866fe60738d3&output=html&source=placeapi_v2', 'children': []}, 'uid': '6a294964d218866fe60738d3', 'address': '307国道北50米', 'detail': 1, 'location': {'lng': 112.273251, 'lat': 37.586236}, 'name': '二小饭店', 'city': '太原市', 'province': '山西省'}
{'area': '清徐县', 'detail_info': {'type': 'cater', 'tag': '美食;中餐厅', 'detail_url': 'http://api.map.baidu.com/place/detail?uid=7def467890fb58b3b34c49ab&output=html&source=placeapi_v2', 'children': []}, 'uid': '7def467890fb58b3b34c49ab', 'address': '东边路蜀都情老火锅旁', 'detail': 1, 'location': {'lng': 112.283006, 'lat': 37.598462}, 'telephone': '(0351)5792000', 'name': '蜀都情老火锅', 'city': '太原市', 'province': '山西省'}
{'area': '清徐县', 'detail_info': {'type': 'cater', 'tag': '美食;小吃快餐店', 'detail_url': 'http://api.map.baidu.com/place/detail?uid=2dc4cc5e6207eda5f8f0cb8f&output=html&source=placeapi_v2', 'children': []}, 'uid': '2dc4cc5e6207eda5f8f0cb8f', 'address': '六合路与星光路交叉口东北150米', 'detail': 1, 'location': {'lng': 112.339332, 'lat': 37.614195}, 'name': '八珍熟肉(六合路店)', 'city': '太原市', 'province': '山西省'}
{'area': '清徐县', 'detail_info': {'tag': '美食;小吃快餐店', 'children': [], 'type': 'cater', 'overall_rating': '0.0', 'detail_url': 'http://api.map.baidu.com/place/detail?uid=665f82974fddd96c4e3a594a&output=html&source=placeapi_v2', 'comment_num': '1'}, 'uid': '665f82974fddd96c4e3a594a', 'address': '山西省太原市清徐县东于镇大东街', 'detail': 1, 'location': {'lng': 112.279093, 'lat': 37.606194}, 'telephone': '18635153987', 'name': '香格里辣熟肉', 'city': '太原市', 'province': '山西省'}
{'area': '清徐县', 'detail_info': {'type': 'cater', 'tag': '美食;小吃快餐店', 'detail_url': 'http://api.map.baidu.com/place/detail?uid=591a5f7abad0ad9a0782c2b6&output=html&source=placeapi_v2', 'children': []}, 'uid': '591a5f7abad0ad9a0782c2b6', 'address': '东边路49号附近', 'detail': 1, 'location': {'lng': 112.282884, 'lat': 37.597022}, 'name': '贵发大碗面', 'city': '太原市', 'province': '山西省'}
{'area': '清徐县', 'detail_info': {'tag': '美食;蛋糕甜品店', 'children': [], 'type': 'cater', 'overall_rating': '0.0', 'detail_url': 'http://api.map.baidu.com/place/detail?uid=f5622fbe87e88ecef5c59c32&output=html&source=placeapi_v2', 'comment_num': '2'}, 'uid': 'f5622fbe87e88ecef5c59c32', 'address': '西高白村双高小学东三号门面房', 'detail': 1, 'location': {'lng': 112.250775, 'lat': 37.587422}, 'telephone': '15834073375', 'name': '日日旺蛋糕坊', 'city': '太原市', 'province': '山西省'}
{'area': '清徐县', 'detail_info': {'type': 'cater', 'overall_rating': '5.0', 'tag': '美食;茶座', 'detail_url': 'http://api.map.baidu.com/place/detail?uid=b907e82a41826380b05c6a99&output=html&source=placeapi_v2', 'children': []}, 'uid': 'b907e82a41826380b05c6a99', 'address': '太原近郊海新机械有限公司北约230米', 'detail': 1, 'location': {'lng': 112.264448, 'lat': 37.590568}, 'name': '兴东会所', 'city': '太原市', 'province': '山西省'}
{'area': '清徐县', 'detail_info': {'type': 'cater', 'tag': '酒店;其他', 'detail_url': 'http://api.map.baidu.com/place/detail?uid=cb28d28cca8d0e9f51e5c599&output=html&source=placeapi_v2', 'children': []}, 'uid': 'cb28d28cca8d0e9f51e5c599', 'address': '太原市清徐县东于镇中高白村307国道南', 'detail': 1, 'location': {'lng': 112.259272, 'lat': 37.581773}, 'telephone': '(0351)2956363', 'name': '通源酒店', 'city': '太原市', 'province': '山西省'}
{'area': '清徐县', 'detail_info': {'overall_rating': '4.2', 'price': '40.0', 'navi_location': {'lng': 112.3671787539, 'lat': 37.614916671584}, 'children': [], 'type': 'cater', 'tag': '美食;中餐厅', 'detail_url': 'http://api.map.baidu.com/place/detail?uid=56f2f696ba5c7c990aa8d41e&output=html&source=placeapi_v2', 'comment_num': '33'}, 'uid': '56f2f696ba5c7c990aa8d41e', 'address': '山西省太原市清徐县美锦北大街159号', 'detail': 1, 'location': {'lng': 112.367099, 'lat': 37.615058}, 'street_id': '56f2f696ba5c7c990aa8d41e', 'telephone': '(0351)5723618', 'name': '清都酒楼', 'city': '太原市', 'province': '山西省'}
{'area': '清徐县', 'detail_info': {'overall_rating': '4.2', 'price': '43.0', 'navi_location': {'lng': 112.37574861631, 'lat': 37.614471438735}, 'children': [], 'type': 'cater', 'tag': '美食;小吃快餐店', 'detail_url': 'http://api.map.baidu.com/place/detail?uid=9c0aa856b7b308e16b49f39b&output=html&source=placeapi_v2', 'comment_num': '16'}, 'uid': '9c0aa856b7b308e16b49f39b', 'address': '山西省太原市清徐县紫林路15-1号', 'detail': 1, 'location': {'lng': 112.375866, 'lat': 37.614709}, 'street_id': '9c0aa856b7b308e16b49f39b', 'telephone': '(0351)5201118', 'name': '德盛圆(紫林路店)', 'city': '太原市', 'province': '山西省'}
{'area': '清徐县', 'detail_info': {'overall_rating': '4.9', 'price': '33.0', 'navi_location': {'lng': 112.36914097832, 'lat': 37.614431746589}, 'children': [], 'type': 'cater', 'tag': '美食;小吃快餐店', 'detail_url': 'http://api.map.baidu.com/place/detail?uid=6c06b10f8159a4b33617dc95&output=html&source=placeapi_v2', 'comment_num': '46'}, 'uid': '6c06b10f8159a4b33617dc95', 'address': '清源路26', 'detail': 1, 'location': {'lng': 112.369069, 'lat': 37.614323}, 'street_id': '6c06b10f8159a4b33617dc95', 'telephone': '13403469217', 'name': '六味斋(清源店)', 'city': '太原市', 'province': '山西省'}
{'area': '小店区', 'detail_info': {'tag': '美食;中餐厅', 'navi_location': {'lng': 112.45403353135, 'lat': 37.620670603297}, 'children': [], 'type': 'cater', 'overall_rating': '5.0', 'detail_url': 'http://api.map.baidu.com/place/detail?uid=fdf5b0cee4a3a1f3ae045748&output=html&source=placeapi_v2', 'comment_num': '1'}, 'uid': 'fdf5b0cee4a3a1f3ae045748', 'address': '山西省太原市小店区郝南线中段', 'detail': 1, 'location': {'lng': 112.454002, 'lat': 37.620502}, 'telephone': '(0351)7958700', 'name': '亨祥居饭庄', 'city': '太原市', 'province': '山西省'}
{'area': '清徐县', 'detail_info': {'overall_rating': '4.1', 'price': '71.0', 'navi_location': {'lng': 112.37465063276, 'lat': 37.615020984829}, 'children': [], 'type': 'cater', 'tag': '美食;中餐厅', 'detail_url': 'http://api.map.baidu.com/place/detail?uid=680fb70329554c9d8ab988a6&output=html&source=placeapi_v2', 'comment_num': '12'}, 'uid': '680fb70329554c9d8ab988a6', 'address': '太原市清徐县紫林路15-17号', 'detail': 1, 'location': {'lng': 112.37462, 'lat': 37.615231}, 'street_id': '680fb70329554c9d8ab988a6', 'telephone': '(0351)5796222', 'name': '阿瓦山寨(紫林路店)', 'city': '太原市', 'province': '山西省'}
{'area': '清徐县', 'detail_info': {'tag': '美食;中餐厅', 'children': [], 'type': 'cater', 'overall_rating': '3.4', 'detail_url': 'http://api.map.baidu.com/place/detail?uid=44a2bf889fdb32129b68b450&output=html&source=placeapi_v2', 'comment_num': '7'}, 'uid': '44a2bf889fdb32129b68b450', 'address': '山西省太原市清徐县东兴路189号', 'detail': 1, 'location': {'lng': 112.368759, 'lat': 37.604002}, 'street_id': '44a2bf889fdb32129b68b450', 'telephone': '(0351)5206878', 'name': '百味轩自助餐厅', 'city': '太原市', 'province': '山西省'}
{'area': '清徐县', 'detail_info': {'overall_rating': '4.2', 'price': '30.0', 'navi_location': {'lng': 112.37429615152, 'lat': 37.615198794591}, 'children': [], 'type': 'cater', 'tag': '美食;中餐厅', 'detail_url': 'http://api.map.baidu.com/place/detail?uid=4edf9fbf4b3cea8dcc06a42e&output=html&source=placeapi_v2', 'comment_num': '23'}, 'uid': '4edf9fbf4b3cea8dcc06a42e', 'address': '清源镇紫林路228号', 'detail': 1, 'location': {'lng': 112.374415, 'lat': 37.615395}, 'street_id': '4edf9fbf4b3cea8dcc06a42e', 'telephone': '(0351)5796666', 'name': '锦江大酒店', 'city': '太原市', 'province': '山西省'}
{'area': '清徐县', 'detail_info': {'tag': '美食;中餐厅', 'children': [], 'type': 'cater', 'overall_rating': '5.0', 'detail_url': 'http://api.map.baidu.com/place/detail?uid=3a5a322115beae3a07026fc5&output=html&source=placeapi_v2', 'comment_num': '2'}, 'uid': '3a5a322115beae3a07026fc5', 'address': '西省太原市清徐县凤仪南街129号', 'detail': 1, 'location': {'lng': 112.353977, 'lat': 37.604941}, 'name': '金玉缘酒楼', 'city': '太原市', 'province': '山西省'}
{'area': '清徐县', 'detail_info': {'tag': '美食;中餐厅', 'children': [], 'type': 'cater', 'overall_rating': '4.2', 'detail_url': 'http://api.map.baidu.com/place/detail?uid=de471d6b0194faa3fbdc85c9&output=html&source=placeapi_v2', 'comment_num': '9'}, 'uid': 'de471d6b0194faa3fbdc85c9', 'address': '清源镇凤仪北街199号', 'detail': 1, 'location': {'lng': 112.372796, 'lat': 37.617144}, 'telephone': '(0351)5292121', 'name': '巧婆姨家味馆', 'city': '太原市', 'province': '山西省'}
{'area': '清徐县', 'detail_info': {'overall_rating': '4.7', 'price': '58.0', 'navi_location': {'lng': 112.37536001115, 'lat': 37.614664186395}, 'children': [], 'type': 'cater', 'tag': '美食;中餐厅', 'detail_url': 'http://api.map.baidu.com/place/detail?uid=57a6f16596362a9ef7e73b72&output=html&source=placeapi_v2', 'comment_num': '24'}, 'uid': '57a6f16596362a9ef7e73b72', 'address': '山西省太原市清徐县紫林路15-7', 'detail': 1, 'location': {'lng': 112.375569, 'lat': 37.61474}, 'street_id': '57a6f16596362a9ef7e73b72', 'telephone': '(0351)5200288', 'name': '醉爱你优火锅(清徐店)', 'city': '太原市', 'province': '山西省'}
{'area': '清徐县', 'detail_info': {'overall_rating': '4.3', 'price': '28.0', 'navi_location': {'lng': 112.35472828265, 'lat': 37.614587782618}, 'children': [], 'type': 'cater', 'tag': '美食;中餐厅', 'detail_url': 'http://api.map.baidu.com/place/detail?uid=5f0b388ef9878cf5616858c8&output=html&source=placeapi_v2', 'comment_num': '34'}, 'uid': '5f0b388ef9878cf5616858c8', 'address': '文源路南门', 'detail': 1, 'location': {'lng': 112.356591, 'lat': 37.615051}, 'street_id': '5f0b388ef9878cf5616858c8', 'telephone': '18003402268,13393417333', 'name': '宏兴火锅城', 'city': '太原市', 'province': '山西省'}
{'area': '清徐县', 'detail_info': {'tag': '美食;中餐厅', 'children': [], 'type': 'cater', 'overall_rating': '5.0', 'detail_url': 'http://api.map.baidu.com/place/detail?uid=80f6dcbff8bf4f723586f411&output=html&source=placeapi_v2', 'comment_num': '2'}, 'uid': '80f6dcbff8bf4f723586f411', 'address': '清源镇文源路中段143号', 'detail': 1, 'location': {'lng': 112.354972, 'lat': 37.614775}, 'telephone': '13033487776', 'name': '宏兴饭店', 'city': '太原市', 'province': '山西省'}
{'area': '清徐县', 'detail_info': {'tag': '美食;中餐厅', 'price': '42.0', 'children': [], 'type': 'cater', 'overall_rating': '4.5', 'detail_url': 'http://api.map.baidu.com/place/detail?uid=c08cba0ce99c26e98c1a893f&output=html&source=placeapi_v2', 'comment_num': '11'}, 'uid': 'c08cba0ce99c26e98c1a893f', 'address': '太原市清徐县文源路西门菜市北街2号', 'detail': 1, 'location': {'lng': 112.352248, 'lat': 37.616766}, 'street_id': 'c08cba0ce99c26e98c1a893f', 'telephone': '13613489990', 'name': '西门劈柴院', 'city': '太原市', 'province': '山西省'}
{'area': '清徐县', 'detail_info': {'type': 'cater', 'tag': '美食;中餐厅', 'navi_location': {'lng': 112.34369679455, 'lat': 37.630702872756}, 'children': [], 'detail_url': 'http://api.map.baidu.com/place/detail?uid=94515b24637ba761210262f8&output=html&source=placeapi_v2'}, 'uid': '94515b24637ba761210262f8', 'address': '山西省太原市清徐县紫林路清徐葡萄文化研究院西200米', 'detail': 1, 'location': {'lng': 112.343861, 'lat': 37.630798}, 'street_id': '94515b24637ba761210262f8', 'telephone': '13934555537', 'name': '仁义会馆', 'city': '太原市', 'province': '山西省'}
{'area': '小店区', 'detail_info': {'tag': '美食;中餐厅', 'navi_location': {'lng': 112.48551051575, 'lat': 37.649207487274}, 'children': [], 'type': 'cater', 'overall_rating': '4.0', 'detail_url': 'http://api.map.baidu.com/place/detail?uid=1657e10682560280c51b7539&output=html&source=placeapi_v2', 'comment_num': '21'}, 'uid': '1657e10682560280c51b7539', 'address': '小店区刘家堡交管所对面', 'detail': 1, 'location': {'lng': 112.485742, 'lat': 37.64911}, 'telephone': '(0351)7952018', 'name': '茂盛饭店', 'city': '太原市', 'province': '山西省'}
{'area': '清徐县', 'detail_info': {'overall_rating': '4.4', 'price': '30.0', 'navi_location': {'lng': 112.35815828258, 'lat': 37.603076191669}, 'children': [], 'type': 'cater', 'tag': '美食;中餐厅', 'detail_url': 'http://api.map.baidu.com/place/detail?uid=30f8de7bd78eb9aa223bf2ad&output=html&source=placeapi_v2', 'comment_num': '6'}, 'uid': '30f8de7bd78eb9aa223bf2ad', 'address': '清源镇四通路3号', 'detail': 1, 'location': {'lng': 112.358257, 'lat': 37.603095}, 'street_id': '30f8de7bd78eb9aa223bf2ad', 'telephone': '13653603316', 'name': '文婷沾片子', 'city': '太原市', 'province': '山西省'}
{'area': '清徐县', 'detail_info': {'overall_rating': '4.2', 'price': '32.0', 'navi_location': {'lng': 112.36283146098, 'lat': 37.609998830309}, 'children': [], 'type': 'cater', 'tag': '美食;小吃快餐店', 'detail_url': 'http://api.map.baidu.com/place/detail?uid=d24e48ebe8b22fadafee7acd&output=html&source=placeapi_v2', 'comment_num': '51'}, 'uid': 'd24e48ebe8b22fadafee7acd', 'address': '山西省太原市清徐县美锦北大街8号', 'detail': 1, 'location': {'lng': 112.362841, 'lat': 37.609866}, 'street_id': 'd24e48ebe8b22fadafee7acd', 'telephone': '(0351)5298190', 'name': '德克士(清徐文源店)', 'city': '太原市', 'province': '山西省'}
{'area': '清徐县', 'detail_info': {'tag': '美食;中餐厅', 'price': '6.0', 'children': [], 'type': 'cater', 'overall_rating': '4.6', 'detail_url': 'http://api.map.baidu.com/place/detail?uid=f6fcc6c6d6edb95a95ca073f&output=html&source=placeapi_v2', 'comment_num': '8'}, 'uid': 'f6fcc6c6d6edb95a95ca073f', 'address': '山西省太原市清徐县凤仪北街迎宪工贸楼152', 'detail': 1, 'location': {'lng': 112.370394, 'lat': 37.611333}, 'street_id': 'f6fcc6c6d6edb95a95ca073f', 'telephone': '13191003830', 'name': '喜喜粗粮馆(清徐店)', 'city': '太原市', 'province': '山西省'}
{'area': '清徐县', 'detail_info': {'tag': '美食;蛋糕甜品店', 'children': [], 'type': 'cater', 'overall_rating': '4.3', 'detail_url': 'http://api.map.baidu.com/place/detail?uid=d06ac4be22512110744ff1dc&output=html&source=placeapi_v2', 'comment_num': '10'}, 'uid': 'd06ac4be22512110744ff1dc', 'address': '山西省太原市清徐县清源路55号', 'detail': 1, 'location': {'lng': 112.368354, 'lat': 37.615035}, 'telephone': '(0351)5737600', 'name': '味尤美(清源路交通局店)', 'city': '太原市', 'province': '山西省'}
{'area': '清徐县', 'detail_info': {'overall_rating': '4.4', 'price': '31.0', 'navi_location': {'lng': 112.37401321224, 'lat': 37.618398818352}, 'children': [], 'type': 'cater', 'tag': '美食;中餐厅', 'detail_url': 'http://api.map.baidu.com/place/detail?uid=4bcd9bb5079a2484e507382a&output=html&source=placeapi_v2', 'comment_num': '7'}, 'uid': '4bcd9bb5079a2484e507382a', 'address': '清徐县城康乐街177号', 'detail': 1, 'location': {'lng': 112.374069, 'lat': 37.618296}, 'street_id': '4bcd9bb5079a2484e507382a', 'telephone': '15835126450', 'name': '小代沾片子(清徐店)', 'city': '太原市', 'province': '山西省'}
{'area': '清徐县', 'detail_info': {'tag': '美食;蛋糕甜品店', 'children': [], 'type': 'cater', 'overall_rating': '5.0', 'detail_url': 'http://api.map.baidu.com/place/detail?uid=6a51f83db27077025d17c310&output=html&source=placeapi_v2', 'comment_num': '2'}, 'uid': '6a51f83db27077025d17c310', 'address': '太原市清徐县湖东二街286号(中共清徐县环境保护局总支委员会西)', 'detail': 1, 'location': {'lng': 112.368634, 'lat': 37.613482}, 'street_id': '6a51f83db27077025d17c310', 'telephone': '13803451152', 'name': '柳海孟封饼业(中共清徐县生态环境局总支委员会西)', 'city': '太原市', 'province': '山西省'}
{'area': '晋源区', 'detail_info': {'type': 'cater', 'tag': '美食;小吃快餐店', 'detail_url': 'http://api.map.baidu.com/place/detail?uid=7fd6685ddb4c3d46a2d23004&output=html&source=placeapi_v2', 'children': []}, 'uid': '7fd6685ddb4c3d46a2d23004', 'address': '山西省太原市晋源区X240(晋白线)', 'detail': 1, 'location': {'lng': 112.396869, 'lat': 37.655035}, 'name': '正新鸡排', 'city': '太原市', 'province': '山西省'}
{'area': '清徐县', 'detail_info': {'tag': '美食;中餐厅', 'price': '45.0', 'children': [], 'type': 'cater', 'overall_rating': '4.3', 'detail_url': 'http://api.map.baidu.com/place/detail?uid=f0cd03e1c9134c974c3a593d&output=html&source=placeapi_v2', 'comment_num': '3'}, 'uid': 'f0cd03e1c9134c974c3a593d', 'address': '山西省太原市清徐县市楼小区西100米(西关大街东)', 'detail': 1, 'location': {'lng': 112.353888, 'lat': 37.623143}, 'name': 'L先生影像主题餐厅', 'city': '太原市', 'province': '山西省'}
{'area': '清徐县', 'detail_info': {'type': 'cater', 'tag': '美食;中餐厅', 'detail_url': 'http://api.map.baidu.com/place/detail?uid=479e73b6a5280437e812e458&output=html&source=placeapi_v2', 'children': []}, 'uid': '479e73b6a5280437e812e458', 'address': '太原市清徐县凤仪北街72号', 'detail': 1, 'location': {'lng': 112.369105, 'lat': 37.608742}, 'street_id': '479e73b6a5280437e812e458', 'telephone': '18550475189', 'name': '王婆大虾', 'city': '太原市', 'province': '山西省'}
{'area': '清徐县', 'detail_info': {'tag': '美食;中餐厅', 'children': [], 'type': 'cater', 'overall_rating': '5.0', 'detail_url': 'http://api.map.baidu.com/place/detail?uid=6a409e72f7285041a21de9f8&output=html&source=placeapi_v2', 'comment_num': '1'}, 'uid': '6a409e72f7285041a21de9f8', 'address': '山西省太原市清徐县文源路', 'detail': 1, 'location': {'lng': 112.369644, 'lat': 37.604059}, 'telephone': '13546388189', 'name': '贺志家常菜馆', 'city': '太原市', 'province': '山西省'}
{'area': '清徐县', 'detail_info': {'tag': '美食;中餐厅', 'navi_location': {'lng': 112.37032627987, 'lat': 37.615258165892}, 'children': [], 'type': 'cater', 'overall_rating': '5.0', 'detail_url': 'http://api.map.baidu.com/place/detail?uid=b59df1d5caaa345132f71d61&output=html&source=placeapi_v2', 'comment_num': '1'}, 'uid': 'b59df1d5caaa345132f71d61', 'address': '湖东二街339号', 'detail': 1, 'location': {'lng': 112.370442, 'lat': 37.615164}, 'street_id': 'b59df1d5caaa345132f71d61', 'name': '欢乐小火锅', 'city': '太原市', 'province': '山西省'}
{'area': '清徐县', 'detail_info': {'tag': '美食;中餐厅', 'children': [], 'type': 'cater', 'overall_rating': '4.7', 'detail_url': 'http://api.map.baidu.com/place/detail?uid=761d8d38c6964909bb17e7c2&output=html&source=placeapi_v2', 'comment_num': '3'}, 'uid': '761d8d38c6964909bb17e7c2', 'address': '山西省太原市清徐县紫林路15号', 'detail': 1, 'location': {'lng': 112.375714, 'lat': 37.614791}, 'street_id': '761d8d38c6964909bb17e7c2', 'telephone': '18035115088', 'name': '紫林阁百饺园', 'city': '太原市', 'province': '山西省'}
{'area': '清徐县', 'detail_info': {'tag': '美食;小吃快餐店', 'children': [], 'type': 'cater', 'overall_rating': '5.0', 'detail_url': 'http://api.map.baidu.com/place/detail?uid=e85ff12aa8e2247488fc06d0&output=html&source=placeapi_v2', 'comment_num': '3'}, 'uid': 'e85ff12aa8e2247488fc06d0', 'address': '清源镇通湖路32号', 'detail': 1, 'location': {'lng': 112.366798, 'lat': 37.610139}, 'street_id': 'e85ff12aa8e2247488fc06d0', 'name': '乔记徐沟灌肠(通湖路店)', 'city': '太原市', 'province': '山西省'}
{'area': '清徐县', 'detail_info': {'type': 'cater', 'tag': '美食;蛋糕甜品店', 'detail_url': 'http://api.map.baidu.com/place/detail?uid=b32b17e47f312b2b8bdb7362&output=html&source=placeapi_v2', 'children': []}, 'uid': 'b32b17e47f312b2b8bdb7362', 'address': '通湖路新吧客旁', 'detail': 1, 'location': {'lng': 112.365996, 'lat': 37.610661}, 'name': '百香林西点', 'city': '太原市', 'province': '山西省'}
{'area': '清徐县', 'detail_info': {'tag': '美食;小吃快餐店', 'children': [], 'type': 'cater', 'overall_rating': '5.0', 'detail_url': 'http://api.map.baidu.com/place/detail?uid=1c0003e9a9e9b420bea240be&output=html&source=placeapi_v2', 'comment_num': '2'}, 'uid': '1c0003e9a9e9b420bea240be', 'address': '西关大街金沙滩小区底商', 'detail': 1, 'location': {'lng': 112.35308, 'lat': 37.623331}, 'telephone': '13734031680', 'name': '陈家面馆', 'city': '太原市', 'province': '山西省'}
{'area': '清徐县', 'detail_info': {'tag': '美食;小吃快餐店', 'price': '13.0', 'children': [], 'type': 'cater', 'overall_rating': '5.0', 'detail_url': 'http://api.map.baidu.com/place/detail?uid=89e5a7d101c9e3a3d518b7bc&output=html&source=placeapi_v2', 'comment_num': '2'}, 'uid': '89e5a7d101c9e3a3d518b7bc', 'address': '山西省太原市清徐县清源镇湖东二街东湖幼儿园附近', 'detail': 1, 'location': {'lng': 112.366783, 'lat': 37.612056}, 'street_id': '89e5a7d101c9e3a3d518b7bc', 'name': '杭州小笼包', 'city': '太原市', 'province': '山西省'}
{'area': '清徐县', 'detail_info': {'tag': '美食;小吃快餐店', 'children': [], 'type': 'cater', 'overall_rating': '5.0', 'detail_url': 'http://api.map.baidu.com/place/detail?uid=2d4b6f65fe16094448cc4a9e&output=html&source=placeapi_v2', 'comment_num': '1'}, 'uid': '2d4b6f65fe16094448cc4a9e', 'address': '美锦南大街12号', 'detail': 1, 'location': {'lng': 112.359596, 'lat': 37.607403}, 'street_id': '2d4b6f65fe16094448cc4a9e', 'telephone': '13935122886', 'name': '四货熟肉(美锦南大街店)', 'city': '太原市', 'province': '山西省'}
{'area': '清徐县', 'detail_info': {'overall_rating': '4.4', 'price': '17.0', 'navi_location': {'lng': 112.36248667785, 'lat': 37.609749637123}, 'children': [], 'type': 'cater', 'tag': '美食;中餐厅', 'detail_url': 'http://api.map.baidu.com/place/detail?uid=06d2dffdbb3c9af588f15d63&output=html&source=placeapi_v2', 'comment_num': '10'}, 'uid': '06d2dffdbb3c9af588f15d63', 'address': '太原近郊清徐县外贸巷4号(太原市住房公积金中心清徐分理处东)', 'detail': 1, 'location': {'lng': 112.362793, 'lat': 37.609808}, 'street_id': '06d2dffdbb3c9af588f15d63', 'telephone': '15834108229', 'name': '志勇片儿汤(太原市住房公积金中心清徐分理处东)', 'city': '太原市', 'province': '山西省'}
{'area': '清徐县', 'detail_info': {'type': 'cater', 'tag': '美食;中餐厅', 'detail_url': 'http://api.map.baidu.com/place/detail?uid=0f26a062cb57c37d5810938a&output=html&source=placeapi_v2', 'children': []}, 'uid': '0f26a062cb57c37d5810938a', 'address': '山西省太原市清徐县湖东二街285号院附近', 'detail': 1, 'location': {'lng': 112.368583, 'lat': 37.613666}, 'name': '早晚餐', 'city': '太原市', 'province': '山西省'}
{'area': '清徐县', 'detail_info': {'type': 'cater', 'tag': '美食;中餐厅', 'detail_url': 'http://api.map.baidu.com/place/detail?uid=afb7e6da3a38584290114cfe&output=html&source=placeapi_v2', 'children': []}, 'uid': 'afb7e6da3a38584290114cfe', 'address': '紫林路清华嘉苑旁', 'detail': 1, 'location': {'lng': 112.375675, 'lat': 37.614628}, 'telephone': '(0351)5796777', 'name': '喜羊羊全羊火锅(清徐店)', 'city': '太原市', 'province': '山西省'}
{'area': '清徐县', 'detail_info': {'type': 'cater', 'tag': '美食;中餐厅', 'detail_url': 'http://api.map.baidu.com/place/detail?uid=33d9234916c15aa96f20b9bd&output=html&source=placeapi_v2', 'children': []}, 'uid': '33d9234916c15aa96f20b9bd', 'address': '山西省太原市清徐县晋夏公路北段80西南80米', 'detail': 1, 'location': {'lng': 112.373934, 'lat': 37.606404}, 'name': '鸿磁缘饭店', 'city': '太原市', 'province': '山西省'}
{'area': '清徐县', 'detail_info': {'type': 'cater', 'tag': '美食;中餐厅', 'detail_url': 'http://api.map.baidu.com/place/detail?uid=9337a93eb5badeb07bf79651&output=html&source=placeapi_v2', 'children': []}, 'uid': '9337a93eb5badeb07bf79651', 'address': '山西省太原市清徐县文源路', 'detail': 1, 'location': {'lng': 112.372805, 'lat': 37.601087}, 'name': '志成饭店', 'city': '太原市', 'province': '山西省'}
{'area': '清徐县', 'detail_info': {'tag': '美食;中餐厅', 'price': '41.0', 'children': [], 'type': 'cater', 'overall_rating': '4.2', 'detail_url': 'http://api.map.baidu.com/place/detail?uid=3498bb5d2112b318c27da2eb&output=html&source=placeapi_v2', 'comment_num': '6'}, 'uid': '3498bb5d2112b318c27da2eb', 'address': '208国道与914县道交叉口东100米', 'detail': 1, 'location': {'lng': 112.475923, 'lat': 37.572402}, 'telephone': '(0351)5948344', 'name': '大鑫饭店', 'city': '太原市', 'province': '山西省'}
{'area': '清徐县', 'detail_info': {'type': 'cater', 'tag': '美食;中餐厅', 'detail_url': 'http://api.map.baidu.com/place/detail?uid=69200e14643060a60289727b&output=html&source=placeapi_v2', 'children': []}, 'uid': '69200e14643060a60289727b', 'address': '山西省太原市清徐县春光路124号', 'detail': 1, 'location': {'lng': 112.356002, 'lat': 37.610075}, 'street_id': '69200e14643060a60289727b', 'telephone': '13333402818,13603561896', 'name': '毛毛鱼店', 'city': '太原市', 'province': '山西省'}
{'area': '清徐县', 'detail_info': {'type': 'cater', 'tag': '美食;中餐厅', 'detail_url': 'http://api.map.baidu.com/place/detail?uid=69f9def4a458e7a54c6d462e&output=html&source=placeapi_v2', 'children': []}, 'uid': '69f9def4a458e7a54c6d462e', 'address': '山西省太原市清徐县凤仪街71号', 'detail': 1, 'location': {'lng': 112.357735, 'lat': 37.605086}, 'street_id': '69f9def4a458e7a54c6d462e', 'name': '四季羊汤馆(清徐店)', 'city': '太原市', 'province': '山西省'}
{'area': '清徐县', 'detail_info': {'image_num': '2', 'tag': '美食;中餐厅', 'children': [], 'type': 'life', 'overall_rating': '0.0', 'detail_url': 'http://api.map.baidu.com/place/detail?uid=f6aeb9317b33e42e14948eaa&output=html&source=placeapi_v2', 'comment_num': '1'}, 'uid': 'f6aeb9317b33e42e14948eaa', 'address': '山西省太原市清徐县湖东二街239', 'detail': 1, 'location': {'lng': 112.367431, 'lat': 37.612535}, 'telephone': '13834222600', 'name': '锅圈食汇(清徐店)', 'city': '太原市', 'province': '山西省'}
{'area': '小店区', 'detail_info': {'type': 'cater', 'tag': '美食;中餐厅', 'navi_location': {'lng': 112.48004890808, 'lat': 37.634083291594}, 'children': [], 'detail_url': 'http://api.map.baidu.com/place/detail?uid=d814b07a23b3647a9703190b&output=html&source=placeapi_v2'}, 'uid': 'd814b07a23b3647a9703190b', 'address': '山西省太原市小店区刘家堡乡代洛线石沟公交站', 'detail': 1, 'location': {'lng': 112.479843, 'lat': 37.634284}, 'telephone': '(0351)7813132', 'name': '百兴饭庄(代洛线)', 'city': '太原市', 'province': '山西省'}
{'area': '清徐县', 'detail_info': {'type': 'cater', 'tag': '美食;蛋糕甜品店', 'price': '19.0', 'detail_url': 'http://api.map.baidu.com/place/detail?uid=0c76a339bfb39fce5d17c376&output=html&source=placeapi_v2', 'children': []}, 'uid': '0c76a339bfb39fce5d17c376', 'address': '山西省太原市清徐县紫林路228号附近', 'detail': 1, 'location': {'lng': 112.374362, 'lat': 37.615479}, 'name': '双合成', 'city': '太原市', 'province': '山西省'}
{'area': '清徐县', 'detail_info': {'type': 'cater', 'tag': '美食;小吃快餐店', 'detail_url': 'http://api.map.baidu.com/place/detail?uid=97c423589897cf40ad080fe1&output=html&source=placeapi_v2', 'children': []}, 'uid': '97c423589897cf40ad080fe1', 'address': '316省道南50米', 'detail': 1, 'location': {'lng': 112.479093, 'lat': 37.598628}, 'name': '正宗兰州拉面', 'city': '太原市', 'province': '山西省'}
{'area': '清徐县', 'detail_info': {'type': 'cater', 'tag': '美食;小吃快餐店', 'detail_url': 'http://api.map.baidu.com/place/detail?uid=ebc232466f02db1a5fd4fe27&output=html&source=placeapi_v2', 'children': []}, 'uid': 'ebc232466f02db1a5fd4fe27', 'address': '文源路与盛地西街交叉口东北50米', 'detail': 1, 'location': {'lng': 112.369449, 'lat': 37.604158}, 'name': '友余面馆', 'city': '太原市', 'province': '山西省'}
{'area': '清徐县', 'detail_info': {'type': 'cater', 'tag': '美食;中餐厅', 'detail_url': 'http://api.map.baidu.com/place/detail?uid=09990e088573a7684afc8d85&output=html&source=placeapi_v2', 'children': []}, 'uid': '09990e088573a7684afc8d85', 'address': '太原市清徐县东兴路189号', 'detail': 1, 'location': {'lng': 112.369406, 'lat': 37.604208}, 'telephone': '13485382928', 'name': '烙饼拌汤村(清徐店)', 'city': '太原市', 'province': '山西省'}
{'area': '清徐县', 'detail_info': {'type': 'cater', 'tag': '美食;小吃快餐店', 'detail_url': 'http://api.map.baidu.com/place/detail?uid=1c605c826b2a6ca8ab175ae4&output=html&source=placeapi_v2', 'children': []}, 'uid': '1c605c826b2a6ca8ab175ae4', 'address': '湖东二街6号斌斌副食批发', 'detail': 1, 'location': {'lng': 112.36087, 'lat': 37.606643}, 'street_id': '1c605c826b2a6ca8ab175ae4', 'telephone': '13653514175', 'name': '好,再来饺子馆', 'city': '太原市', 'province': '山西省'}
{'area': '清徐县', 'detail_info': {'type': 'cater', 'tag': '美食;小吃快餐店', 'detail_url': 'http://api.map.baidu.com/place/detail?uid=a8deadfe3ae1ee9a5fd4fe06&output=html&source=placeapi_v2', 'children': []}, 'uid': 'a8deadfe3ae1ee9a5fd4fe06', 'address': '凤仪街附近', 'detail': 1, 'location': {'lng': 112.373948, 'lat': 37.618132}, 'name': '早早快餐', 'city': '太原市', 'province': '山西省'}
{'area': '小店区', 'detail_info': {'type': 'cater', 'tag': '美食;中餐厅', 'detail_url': 'http://api.map.baidu.com/place/detail?uid=1f71a97fa9dfb28348cc4aad&output=html&source=placeapi_v2', 'children': []}, 'uid': '1f71a97fa9dfb28348cc4aad', 'address': '小牛线与244县道交叉口西北100米', 'detail': 1, 'location': {'lng': 112.468764, 'lat': 37.649189}, 'name': '兄弟饭店', 'city': '太原市', 'province': '山西省'}
{'area': '清徐县', 'detail_info': {'type': 'cater', 'tag': '美食', 'detail_url': 'http://api.map.baidu.com/place/detail?uid=a674347ae7663acec91b9574&output=html&source=placeapi_v2', 'children': []}, 'uid': 'a674347ae7663acec91b9574', 'address': '山西省太原市清徐县凤仪北街137号附近', 'detail': 1, 'location': {'lng': 112.3714, 'lat': 37.613795}, 'name': '乐小刘', 'city': '太原市', 'province': '山西省'}
{'area': '清徐县', 'detail_info': {'type': 'cater', 'tag': '美食;其他', 'detail_url': 'http://api.map.baidu.com/place/detail?uid=8c53ce909ba97acfab175a48&output=html&source=placeapi_v2', 'children': []}, 'uid': '8c53ce909ba97acfab175a48', 'address': '清源镇307国道西', 'detail': 1, 'location': {'lng': 112.374114, 'lat': 37.60643}, 'name': '西穆庄', 'city': '太原市', 'province': '山西省'}
{'area': '清徐县', 'detail_info': {'type': 'cater', 'tag': '美食;小吃快餐店', 'detail_url': 'http://api.map.baidu.com/place/detail?uid=ea5c51b2c811b04117c8f61d&output=html&source=placeapi_v2', 'children': []}, 'uid': 'ea5c51b2c811b04117c8f61d', 'address': '山西省太原市清徐县美锦大街与春光一路交叉口西南', 'detail': 1, 'location': {'lng': 112.358826, 'lat': 37.606681}, 'street_id': 'ea5c51b2c811b04117c8f61d', 'name': '二棉全羊馆', 'city': '太原市', 'province': '山西省'}
{'area': '清徐县', 'detail_info': {'type': 'cater', 'tag': '美食;小吃快餐店', 'detail_url': 'http://api.map.baidu.com/place/detail?uid=7a9c126d1cbebb39c3364422&output=html&source=placeapi_v2', 'children': []}, 'uid': '7a9c126d1cbebb39c3364422', 'address': '山西省太原市清徐县紫林路', 'detail': 1, 'location': {'lng': 112.367149, 'lat': 37.619209}, 'name': '早点面吧', 'city': '太原市', 'province': '山西省'}
{'area': '清徐县', 'detail_info': {'type': 'cater', 'tag': '美食;小吃快餐店', 'detail_url': 'http://api.map.baidu.com/place/detail?uid=1039849248d7e2a18bdb7344&output=html&source=placeapi_v2', 'children': []}, 'uid': '1039849248d7e2a18bdb7344', 'address': '山西省太原市清徐县清源路16号附近', 'detail': 1, 'location': {'lng': 112.369239, 'lat': 37.614033}, 'name': '东北早餐店', 'city': '太原市', 'province': '山西省'}
{'area': '清徐县', 'detail_info': {'type': 'cater', 'tag': '美食', 'detail_url': 'http://api.map.baidu.com/place/detail?uid=860d4158207372e89ff77908&output=html&source=placeapi_v2', 'children': []}, 'uid': '860d4158207372e89ff77908', 'address': '山西省太原市清徐县清源路30号附近', 'detail': 1, 'location': {'lng': 112.368928, 'lat': 37.614284}, 'name': '荞歌碗团', 'city': '太原市', 'province': '山西省'}
{'area': '清徐县', 'detail_info': {'tag': '美食;中餐厅', 'price': '47.0', 'children': [], 'type': 'cater', 'overall_rating': '4.1', 'detail_url': 'http://api.map.baidu.com/place/detail?uid=0e6754dfa96d8cb922022085&output=html&source=placeapi_v2', 'comment_num': '11'}, 'uid': '0e6754dfa96d8cb922022085', 'address': '近郊凤仪街与湖东三街东一巷丁字路口西北角(温和宾馆旁)', 'detail': 1, 'location': {'lng': 112.367847, 'lat': 37.607342}, 'street_id': '0e6754dfa96d8cb922022085', 'telephone': '13546414815', 'name': '翠花木火铁锅炖鱼村', 'city': '太原市', 'province': '山西省'}
{'area': '清徐县', 'detail_info': {'tag': '美食;中餐厅', 'navi_location': {'lng': 112.37449217167, 'lat': 37.61822382949}, 'children': [], 'type': 'cater', 'overall_rating': '4.6', 'detail_url': 'http://api.map.baidu.com/place/detail?uid=40d631b34d69715f38221c25&output=html&source=placeapi_v2', 'comment_num': '6'}, 'uid': '40d631b34d69715f38221c25', 'address': '山西省太原市清徐县康乐街181', 'detail': 1, 'location': {'lng': 112.374259, 'lat': 37.618424}, 'street_id': '40d631b34d69715f38221c25', 'telephone': '13603561985', 'name': '侯旦家常菜', 'city': '太原市', 'province': '山西省'}
{'area': '清徐县', 'detail_info': {'tag': '美食;中餐厅', 'price': '15.0', 'children': [], 'type': 'cater', 'overall_rating': '4.6', 'detail_url': 'http://api.map.baidu.com/place/detail?uid=d9d11ca1968c9d9994ec849d&output=html&source=placeapi_v2', 'comment_num': '5'}, 'uid': 'd9d11ca1968c9d9994ec849d', 'address': '太原市清徐县文源路中段144号', 'detail': 1, 'location': {'lng': 112.355174, 'lat': 37.613887}, 'street_id': 'd9d11ca1968c9d9994ec849d', 'telephone': '15835103103,13485351559', 'name': '养生粥吧', 'city': '太原市', 'province': '山西省'}
{'area': '清徐县', 'detail_info': {'type': 'cater', 'tag': '美食;中餐厅', 'detail_url': 'http://api.map.baidu.com/place/detail?uid=c5856a7e95eb0d36a1a934e9&output=html&source=placeapi_v2', 'children': []}, 'uid': 'c5856a7e95eb0d36a1a934e9', 'address': '太原市清徐县晋夏公路与307省道交叉口处往北200米处', 'detail': 1, 'location': {'lng': 112.384333, 'lat': 37.618767}, 'telephone': '15536090135,15364617152', 'name': '宏星饭店', 'city': '太原市', 'province': '山西省'}
{'area': '清徐县', 'detail_info': {'overall_rating': '4.4', 'price': '15.0', 'navi_location': {'lng': 112.36862785364, 'lat': 37.613619964525}, 'children': [], 'type': 'cater', 'tag': '美食;中餐厅', 'detail_url': 'http://api.map.baidu.com/place/detail?uid=8ca692c1b98a353181a12efe&output=html&source=placeapi_v2', 'comment_num': '39'}, 'uid': '8ca692c1b98a353181a12efe', 'address': '清徐县中心城区湖东二街282号与环兴路交叉口', 'detail': 1, 'location': {'lng': 112.368706, 'lat': 37.613416}, 'street_id': '8ca692c1b98a353181a12efe', 'telephone': '15536508986', 'name': '刘记小火锅(二街店)', 'city': '太原市', 'province': '山西省'}
{'area': '清徐县', 'detail_info': {'type': 'cater', 'tag': '美食;中餐厅', 'detail_url': 'http://api.map.baidu.com/place/detail?uid=b08bf8c9d058f36d6f3e1b33&output=html&source=placeapi_v2', 'children': []}, 'uid': 'b08bf8c9d058f36d6f3e1b33', 'address': '晋夏公路北段320号附近', 'detail': 1, 'location': {'lng': 112.384145, 'lat': 37.618517}, 'name': '王记全羊馆', 'city': '太原市', 'province': '山西省'}
{'area': '清徐县', 'detail_info': {'tag': '美食;中餐厅', 'navi_location': {'lng': 112.35804145974, 'lat': 37.603481155168}, 'children': [], 'type': 'cater', 'overall_rating': '4.0', 'detail_url': 'http://api.map.baidu.com/place/detail?uid=3c34aa5467761df6b23c811b&output=html&source=placeapi_v2', 'comment_num': '5'}, 'uid': '3c34aa5467761df6b23c811b', 'address': '山西省太原市清徐县清源镇四通路金熙苑酒店(赛风小区东南)', 'detail': 1, 'location': {'lng': 112.357834, 'lat': 37.603354}, 'street_id': '3c34aa5467761df6b23c811b', 'telephone': '15034064761', 'name': '福记闽南海鲜馆', 'city': '太原市', 'province': '山西省'}
{'area': '晋源区', 'detail_info': {'tag': '美食;蛋糕甜品店', 'price': '32.0', 'children': [], 'type': 'cater', 'overall_rating': '4.5', 'detail_url': 'http://api.map.baidu.com/place/detail?uid=823889f6cd011c674054d717&output=html&source=placeapi_v2', 'comment_num': '5'}, 'uid': '823889f6cd011c674054d717', 'address': '姚村红楼十字路口往北50米', 'detail': 1, 'location': {'lng': 112.397171, 'lat': 37.655661}, 'telephone': '13643511215', 'name': '琦琦蛋糕坊', 'city': '太原市', 'province': '山西省'}
{'area': '清徐县', 'detail_info': {'tag': '美食;中餐厅', 'price': '27.5', 'children': [], 'type': 'cater', 'overall_rating': '4.0', 'detail_url': 'http://api.map.baidu.com/place/detail?uid=78553c7b1ea4448af4eafc9e&output=html&source=placeapi_v2', 'comment_num': '9'}, 'uid': '78553c7b1ea4448af4eafc9e', 'address': '凤仪北街139号', 'detail': 1, 'location': {'lng': 112.37122, 'lat': 37.613441}, 'street_id': '78553c7b1ea4448af4eafc9e', 'telephone': '15834008866', 'name': '晶晶家常菜', 'city': '太原市', 'province': '山西省'}
{'area': '清徐县', 'detail_info': {'tag': '美食;中餐厅', 'price': '41.0', 'children': [], 'type': 'cater', 'overall_rating': '4.7', 'detail_url': 'http://api.map.baidu.com/place/detail?uid=3c9300c88393a5a7b75f1ed7&output=html&source=placeapi_v2', 'comment_num': '20'}, 'uid': '3c9300c88393a5a7b75f1ed7', 'address': '凤仪北街245号', 'detail': 1, 'location': {'lng': 112.371961, 'lat': 37.619925}, 'street_id': '3c9300c88393a5a7b75f1ed7', 'telephone': '13453166444', 'name': '焱鱼新派古道烤鱼', 'city': '太原市', 'province': '山西省'}
{'area': '小店区', 'detail_info': {'type': 'life', 'image_num': '1', 'tag': '美食;中餐厅', 'detail_url': 'http://api.map.baidu.com/place/detail?uid=f91535d283a18e9bc056ac3e&output=html&source=placeapi_v2', 'children': []}, 'uid': 'f91535d283a18e9bc056ac3e', 'address': '小刘线与208国道交叉口西北50米', 'detail': 1, 'location': {'lng': 112.487269, 'lat': 37.65263}, 'telephone': '17703413718,15228030363', 'name': '湘湘川菜馆', 'city': '太原市', 'province': '山西省'}
{'area': '清徐县', 'detail_info': {'overall_rating': '4.8', 'price': '20.0', 'navi_location': {'lng': 112.35558580509, 'lat': 37.613864010527}, 'children': [], 'type': 'cater', 'tag': '美食;中餐厅', 'detail_url': 'http://api.map.baidu.com/place/detail?uid=287bd654b858264031f71d3c&output=html&source=placeapi_v2', 'comment_num': '19'}, 'uid': '287bd654b858264031f71d3c', 'address': '文源路中段154号', 'detail': 1, 'location': {'lng': 112.355319, 'lat': 37.613764}, 'street_id': '287bd654b858264031f71d3c', 'telephone': '(0351)2522523', 'name': '刘记小火锅(文源路店)', 'city': '太原市', 'province': '山西省'}
{'area': '清徐县', 'detail_info': {'tag': '美食;中餐厅', 'price': '26.5', 'children': [], 'type': 'cater', 'overall_rating': '3.9', 'detail_url': 'http://api.map.baidu.com/place/detail?uid=8ef3f29fc3e5981e01294ff7&output=html&source=placeapi_v2', 'comment_num': '10'}, 'uid': '8ef3f29fc3e5981e01294ff7', 'address': '湖东二街282号京都美食城斜对面', 'detail': 1, 'location': {'lng': 112.367814, 'lat': 37.6131}, 'street_id': '8ef3f29fc3e5981e01294ff7', 'telephone': '13653607005', 'name': '重庆鸡公煲(清徐店)', 'city': '太原市', 'province': '山西省'}
{'area': '晋源区', 'detail_info': {'type': 'cater', 'tag': '美食;中餐厅', 'detail_url': 'http://api.map.baidu.com/place/detail?uid=8ff84fc4690ce6bcd22dd6bd&output=html&source=placeapi_v2', 'children': []}, 'uid': '8ff84fc4690ce6bcd22dd6bd', 'address': '山西省太原市晋源区X240(晋白线)', 'detail': 1, 'location': {'lng': 112.398217, 'lat': 37.655652}, 'name': '麻辣之乡', 'city': '太原市', 'province': '山西省'}
{'area': '清徐县', 'detail_info': {'tag': '美食;小吃快餐店', 'children': [], 'type': 'cater', 'overall_rating': '3.2', 'detail_url': 'http://api.map.baidu.com/place/detail?uid=e53c76acf613ea4c43afe634&output=html&source=placeapi_v2', 'comment_num': '9'}, 'uid': 'e53c76acf613ea4c43afe634', 'address': '湖东二街103号', 'detail': 1, 'location': {'lng': 112.364439, 'lat': 37.60993}, 'telephone': '13546388131', 'name': '正新鸡排(湖东二街店)', 'city': '太原市', 'province': '山西省'}
{'area': '清徐县', 'detail_info': {'tag': '美食;中餐厅', 'price': '29.0', 'children': [], 'type': 'cater', 'overall_rating': '4.5', 'detail_url': 'http://api.map.baidu.com/place/detail?uid=d10588da1b94891148cc4ac8&output=html&source=placeapi_v2', 'comment_num': '17'}, 'uid': 'd10588da1b94891148cc4ac8', 'address': '清徐县凤仪北街30号', 'detail': 1, 'location': {'lng': 112.367976, 'lat': 37.606956}, 'street_id': 'd10588da1b94891148cc4ac8', 'telephone': '13233665055', 'name': '香辣虾(清徐店)', 'city': '太原市', 'province': '山西省'}
{'area': '清徐县', 'detail_info': {'type': 'cater', 'tag': '美食;中餐厅', 'detail_url': 'http://api.map.baidu.com/place/detail?uid=b7e9a8362cf6a03f88fc06e0&output=html&source=placeapi_v2', 'children': []}, 'uid': 'b7e9a8362cf6a03f88fc06e0', 'address': '山西省太原市清徐县紫林路105号西北60米', 'detail': 1, 'location': {'lng': 112.365365, 'lat': 37.620147}, 'name': '麻辣香锅烧烤海鲜', 'city': '太原市', 'province': '山西省'}
{'area': '清徐县', 'detail_info': {'type': 'cater', 'tag': '美食;中餐厅', 'detail_url': 'http://api.map.baidu.com/place/detail?uid=0c35f780f8a422b0d02dd65b&output=html&source=placeapi_v2', 'children': []}, 'uid': '0c35f780f8a422b0d02dd65b', 'address': '太原市清徐县敦化南路165号清华苑附近', 'detail': 1, 'location': {'lng': 112.371199, 'lat': 37.634098}, 'name': '有个早点', 'city': '太原市', 'province': '山西省'}
{'area': '清徐县', 'detail_info': {'tag': '美食;小吃快餐店', 'price': '19.5', 'children': [], 'type': 'cater', 'overall_rating': '3.0', 'detail_url': 'http://api.map.baidu.com/place/detail?uid=5afeb12bc33778309fec2bf0&output=html&source=placeapi_v2', 'comment_num': '4'}, 'uid': '5afeb12bc33778309fec2bf0', 'address': '太原市清徐县湖东二街96号', 'detail': 1, 'location': {'lng': 112.364182, 'lat': 37.609854}, 'street_id': '5afeb12bc33778309fec2bf0', 'name': '绝味鸭脖(清徐店)', 'city': '太原市', 'province': '山西省'}
{'area': '清徐县', 'detail_info': {'overall_rating': '3.0', 'price': '19.0', 'navi_location': {'lng': 112.36724275637, 'lat': 37.609956033031}, 'children': [], 'type': 'cater', 'tag': '美食;中餐厅', 'detail_url': 'http://api.map.baidu.com/place/detail?uid=18264ec5255c141e6140a9e7&output=html&source=placeapi_v2', 'comment_num': '1'}, 'uid': '18264ec5255c141e6140a9e7', 'address': '山西省太原市清徐县通湖路37', 'detail': 1, 'location': {'lng': 112.367204, 'lat': 37.610095}, 'street_id': '18264ec5255c141e6140a9e7', 'name': '西安风味(通湖路店)', 'city': '太原市', 'province': '山西省'}
{'area': '晋源区', 'detail_info': {'type': 'cater', 'tag': '美食;中餐厅', 'detail_url': 'http://api.map.baidu.com/place/detail?uid=24effd1003698128734b87e9&output=html&source=placeapi_v2', 'children': []}, 'uid': '24effd1003698128734b87e9', 'address': '山西省太原市晋源区X240(晋白线)', 'detail': 1, 'location': {'lng': 112.396396, 'lat': 37.655709}, 'name': '梅子饭店', 'city': '太原市', 'province': '山西省'}
{'area': '清徐县', 'detail_info': {'type': 'cater', 'tag': '美食;中餐厅', 'detail_url': 'http://api.map.baidu.com/place/detail?uid=5be5cf426d7d64460f0a70ff&output=html&source=placeapi_v2', 'children': []}, 'uid': '5be5cf426d7d64460f0a70ff', 'address': '山西省太原市清徐县紫林路仁义小区B区727号门面房', 'detail': 1, 'location': {'lng': 112.346802, 'lat': 37.629372}, 'name': '川晋家常菜(保义饭店)', 'city': '太原市', 'province': '山西省'}
{'area': '晋源区', 'detail_info': {'type': 'cater', 'tag': '美食;中餐厅', 'detail_url': 'http://api.map.baidu.com/place/detail?uid=600971b7223efe85eb1e97e5&output=html&source=placeapi_v2', 'children': []}, 'uid': '600971b7223efe85eb1e97e5', 'address': '山西省太原市晋源区X240(晋白线)', 'detail': 1, 'location': {'lng': 112.396996, 'lat': 37.655095}, 'telephone': '19934915095', 'name': '南肖墙丸子汤', 'city': '太原市', 'province': '山西省'}
{'area': '清徐县', 'detail_info': {'tag': '美食;外国餐厅', 'price': '42.0', 'children': [], 'type': 'cater', 'overall_rating': '4.0', 'detail_url': 'http://api.map.baidu.com/place/detail?uid=355ab17bd25b0b52c8fa5f8a&output=html&source=placeapi_v2', 'comment_num': '2'}, 'uid': '355ab17bd25b0b52c8fa5f8a', 'address': '山西省太原市清徐县凤仪北街51号附近', 'detail': 1, 'location': {'lng': 112.368993, 'lat': 37.609393}, 'telephone': '18735191858,15835100108', 'name': '龙江韩式烤肉', 'city': '太原市', 'province': '山西省'}
{'area': '晋源区', 'detail_info': {'type': 'cater', 'tag': '美食;中餐厅', 'detail_url': 'http://api.map.baidu.com/place/detail?uid=986c134575110ba2744ff146&output=html&source=placeapi_v2', 'children': []}, 'uid': '986c134575110ba2744ff146', 'address': '山西省太原市晋源区X240(晋白线)', 'detail': 1, 'location': {'lng': 112.393143, 'lat': 37.653534}, 'telephone': '13099046950', 'name': '王郭村杂割羊汤馆', 'city': '太原市', 'province': '山西省'}
{'area': '清徐县', 'detail_info': {'type': 'cater', 'overall_rating': '4.2', 'tag': '美食;中餐厅', 'detail_url': 'http://api.map.baidu.com/place/detail?uid=aee6d8615415bfed1ce99989&output=html&source=placeapi_v2', 'children': []}, 'uid': 'aee6d8615415bfed1ce99989', 'address': '山西省太原市清徐县旺达路中国石化清徐王答加油站北', 'detail': 1, 'location': {'lng': 112.477569, 'lat': 37.59922}, 'name': '姐妹饭店', 'city': '太原市', 'province': '山西省'}
{'area': '晋源区', 'detail_info': {'tag': '美食;小吃快餐店', 'navi_location': {'lng': 112.39689591109, 'lat': 37.655307520372}, 'children': [], 'type': 'cater', 'overall_rating': '4.0', 'detail_url': 'http://api.map.baidu.com/place/detail?uid=1f0e0b1fbe55e9e41e3894ea&output=html&source=placeapi_v2', 'comment_num': '3'}, 'uid': '1f0e0b1fbe55e9e41e3894ea', 'address': '山西省太原市晋源区中国邮政(太原市姚村镇政府南)', 'detail': 1, 'location': {'lng': 112.396958, 'lat': 37.655114}, 'telephone': '13834113343', 'name': '欧萨克汉堡', 'city': '太原市', 'province': '山西省'}
{'area': '清徐县', 'detail_info': {'tag': '美食;小吃快餐店', 'price': '24.0', 'children': [], 'type': 'cater', 'overall_rating': '4.0', 'detail_url': 'http://api.map.baidu.com/place/detail?uid=982eee1566d180dff8f0cb7c&output=html&source=placeapi_v2', 'comment_num': '2'}, 'uid': '982eee1566d180dff8f0cb7c', 'address': '山西省太原市清徐县湖东二街268', 'detail': 1, 'location': {'lng': 112.367814, 'lat': 37.6131}, 'street_id': '982eee1566d180dff8f0cb7c', 'telephone': '15536932924,15234469996', 'name': '竹香缘过桥米线(湖东二街店)', 'city': '太原市', 'province': '山西省'}
{'area': '晋源区', 'detail_info': {'checkin_num': '0', 'image_num': '2', 'facility_rating': '0', 'hygiene_rating': '0', 'favorite_num': '0', 'children': [], 'type': 'hotel', 'service_rating': '0', 'tag': '美食;中餐厅', 'detail_url': 'http://api.map.baidu.com/place/detail?uid=13b8f1c32db7706d704b8767&output=html&source=placeapi_v2', 'comment_num': '0'}, 'uid': '13b8f1c32db7706d704b8767', 'address': '山西省太原市晋源区姚村镇固驿晋白线北', 'detail': 1, 'location': {'lng': 112.386669, 'lat': 37.651386}, 'telephone': '18734100545', 'name': '金成饭店', 'city': '太原市', 'province': '山西省'}
{'area': '清徐县', 'detail_info': {'type': 'cater', 'tag': '美食;小吃快餐店', 'detail_url': 'http://api.map.baidu.com/place/detail?uid=a8e91c57ece244feef74f81d&output=html&source=placeapi_v2', 'children': []}, 'uid': 'a8e91c57ece244feef74f81d', 'address': '山西省太原市清徐县紫林路', 'detail': 1, 'location': {'lng': 112.363237, 'lat': 37.621234}, 'name': '建国面馆', 'city': '太原市', 'province': '山西省'}
{'area': '清徐县', 'detail_info': {'type': 'cater', 'tag': '美食;中餐厅', 'detail_url': 'http://api.map.baidu.com/place/detail?uid=ea5284f895571d5115a1909d&output=html&source=placeapi_v2', 'children': []}, 'uid': 'ea5284f895571d5115a1909d', 'address': '山西省太原市清徐县G208(二长线)', 'detail': 1, 'location': {'lng': 112.477225, 'lat': 37.597781}, 'name': '大众羊汤馆', 'city': '太原市', 'province': '山西省'}
{'area': '清徐县', 'detail_info': {'tag': '美食;小吃快餐店', 'price': '13.0', 'children': [], 'type': 'cater', 'overall_rating': '4.0', 'detail_url': 'http://api.map.baidu.com/place/detail?uid=69465cfe913481cb5d0d0221&output=html&source=placeapi_v2', 'comment_num': '4'}, 'uid': '69465cfe913481cb5d0d0221', 'address': '湖东三街79号', 'detail': 1, 'location': {'lng': 112.367831, 'lat': 37.610621}, 'street_id': '69465cfe913481cb5d0d0221', 'telephone': '13503501806', 'name': '张姐烤肉拌饭(清徐店)', 'city': '太原市', 'province': '山西省'}
{'area': '晋源区', 'detail_info': {'tag': '美食;小吃快餐店', 'children': [], 'type': 'cater', 'overall_rating': '4.0', 'detail_url': 'http://api.map.baidu.com/place/detail?uid=54bd129fc91a7c5628201afe&output=html&source=placeapi_v2', 'comment_num': '1'}, 'uid': '54bd129fc91a7c5628201afe', 'address': '039省道中国电信旁', 'detail': 1, 'location': {'lng': 112.397652, 'lat': 37.655801}, 'telephone': '13834649871', 'name': '老地方驴肉馆大碗面(姚村店)', 'city': '太原市', 'province': '山西省'}
{'area': '清徐县', 'detail_info': {'tag': '美食;小吃快餐店', 'price': '21.0', 'children': [], 'type': 'cater', 'overall_rating': '5.0', 'detail_url': 'http://api.map.baidu.com/place/detail?uid=7e03e18c4935acc84054d74d&output=html&source=placeapi_v2', 'comment_num': '1'}, 'uid': '7e03e18c4935acc84054d74d', 'address': '凤仪北街200号苹果社区旁', 'detail': 1, 'location': {'lng': 112.372963, 'lat': 37.61764}, 'street_id': '7e03e18c4935acc84054d74d', 'telephone': '13834222216', 'name': '如家面馆(凤仪街店)', 'city': '太原市', 'province': '山西省'}
{'area': '清徐县', 'detail_info': {'type': 'cater', 'tag': '美食;小吃快餐店', 'detail_url': 'http://api.map.baidu.com/place/detail?uid=3d30a82e741c24ebeb12e49e&output=html&source=placeapi_v2', 'children': []}, 'uid': '3d30a82e741c24ebeb12e49e', 'address': '山西省太原市清徐县凤仪北街51号附近', 'detail': 1, 'location': {'lng': 112.368911, 'lat': 37.609264}, 'name': '武汉鸭脖王', 'city': '太原市', 'province': '山西省'}
{'area': '清徐县', 'detail_info': {'type': 'cater', 'tag': '美食;小吃快餐店', 'detail_url': 'http://api.map.baidu.com/place/detail?uid=aa14853d3097ed0375e5b6e6&output=html&source=placeapi_v2', 'children': []}, 'uid': 'aa14853d3097ed0375e5b6e6', 'address': '太原市清徐县文源路东段145号', 'detail': 1, 'location': {'lng': 112.368761, 'lat': 37.604564}, 'telephone': '15535122681', 'name': '和谐快餐(文源路店)', 'city': '太原市', 'province': '山西省'}
{'area': '晋源区', 'detail_info': {'type': 'cater', 'tag': '美食;小吃快餐店', 'detail_url': 'http://api.map.baidu.com/place/detail?uid=25161238f2a46cf6932ca37d&output=html&source=placeapi_v2', 'children': []}, 'uid': '25161238f2a46cf6932ca37d', 'address': '山西省太原市晋源区X240(晋白线)', 'detail': 1, 'location': {'lng': 112.397451, 'lat': 37.655327}, 'name': '麻不怕私家麻辣拌', 'city': '太原市', 'province': '山西省'}
{'area': '晋源区', 'detail_info': {'type': 'cater', 'tag': '美食;小吃快餐店', 'detail_url': 'http://api.map.baidu.com/place/detail?uid=d6f8f4ca404d7cf297ec8436&output=html&source=placeapi_v2', 'children': []}, 'uid': 'd6f8f4ca404d7cf297ec8436', 'address': '山西省太原市晋源区X240(晋白线)', 'detail': 1, 'location': {'lng': 112.396156, 'lat': 37.655199}, 'name': '平遥面馆', 'city': '太原市', 'province': '山西省'}
{'area': '清徐县', 'detail_info': {'type': 'cater', 'tag': '美食;小吃快餐店', 'detail_url': 'http://api.map.baidu.com/place/detail?uid=cc2f90888c7bd1748c55ecce&output=html&source=placeapi_v2', 'children': []}, 'uid': 'cc2f90888c7bd1748c55ecce', 'address': '太原市清徐县二长线与南环路交叉路口向东南约50米', 'detail': 1, 'location': {'lng': 112.478277, 'lat': 37.598679}, 'name': '湖北包子铺', 'city': '太原市', 'province': '山西省'}
{'area': '清徐县', 'detail_info': {'tag': '美食;蛋糕甜品店', 'price': '45.0', 'children': [], 'type': 'cater', 'overall_rating': '4.8', 'detail_url': 'http://api.map.baidu.com/place/detail?uid=92d1267218de2b0828b97cb6&output=html&source=placeapi_v2', 'comment_num': '17'}, 'uid': '92d1267218de2b0828b97cb6', 'address': '山西省太原市清徐县湖东二街271', 'detail': 1, 'location': {'lng': 112.368422, 'lat': 37.613671}, 'street_id': '92d1267218de2b0828b97cb6', 'telephone': '15834108750', 'name': '韵琪贝可丽', 'city': '太原市', 'province': '山西省'}
{'area': '清徐县', 'detail_info': {'tag': '美食;蛋糕甜品店', 'price': '39.0', 'children': [], 'type': 'cater', 'overall_rating': '5.0', 'detail_url': 'http://api.map.baidu.com/place/detail?uid=e5d73a36fe795de32b3a9f21&output=html&source=placeapi_v2', 'comment_num': '9'}, 'uid': 'e5d73a36fe795de32b3a9f21', 'address': '美锦大街与清源路十字路口往西10米东湖公园方向', 'detail': 1, 'location': {'lng': 112.367286, 'lat': 37.615543}, 'street_id': 'e5d73a36fe795de32b3a9f21', 'name': '甜趣', 'city': '太原市', 'province': '山西省'}
{'area': '清徐县', 'detail_info': {'tag': '美食;蛋糕甜品店', 'price': '24.0', 'children': [], 'type': 'cater', 'overall_rating': '3.8', 'detail_url': 'http://api.map.baidu.com/place/detail?uid=0c2be3bccd82874bd23ce361&output=html&source=placeapi_v2', 'comment_num': '10'}, 'uid': '0c2be3bccd82874bd23ce361', 'address': '南关街13号(南关街与育青路交叉口)', 'detail': 1, 'location': {'lng': 112.351367, 'lat': 37.610917}, 'telephone': '18835122862,13935119444', 'name': '甜心烘焙屋(清徐店)', 'city': '太原市', 'province': '山西省'}
{'area': '清徐县', 'detail_info': {'type': 'cater', 'tag': '美食;茶座', 'detail_url': 'http://api.map.baidu.com/place/detail?uid=8fb9a442faa7a6d5f942b290&output=html&source=placeapi_v2', 'children': []}, 'uid': '8fb9a442faa7a6d5f942b290', 'address': '山西省太原市清徐县凤仪北街257号院附近', 'detail': 1, 'location': {'lng': 112.371383, 'lat': 37.621185}, 'name': '梅林轩茶馆', 'city': '太原市', 'province': '山西省'}
{'area': '清徐县', 'detail_info': {'tag': '美食;蛋糕甜品店', 'children': [], 'type': 'cater', 'overall_rating': '3.2', 'detail_url': 'http://api.map.baidu.com/place/detail?uid=aca2e8e1c5a0a4a5b52655fc&output=html&source=placeapi_v2', 'comment_num': '5'}, 'uid': 'aca2e8e1c5a0a4a5b52655fc', 'address': '湖东二街205号(中共清徐县环境保护局总支委员会西)', 'detail': 1, 'location': {'lng': 112.366323, 'lat': 37.61118}, 'street_id': 'aca2e8e1c5a0a4a5b52655fc', 'telephone': '13803493712', 'name': '孟封饼业(湖东二街店)', 'city': '太原市', 'province': '山西省'}
{'area': '清徐县', 'detail_info': {'tag': '美食;蛋糕甜品店', 'price': '20.0', 'children': [], 'type': 'cater', 'overall_rating': '3.4', 'detail_url': 'http://api.map.baidu.com/place/detail?uid=a7ba1d601c8c36e8223bf2ab&output=html&source=placeapi_v2', 'comment_num': '9'}, 'uid': 'a7ba1d601c8c36e8223bf2ab', 'address': '文源路南门工会大厦一层', 'detail': 1, 'location': {'lng': 112.354332, 'lat': 37.615224}, 'street_id': 'a7ba1d601c8c36e8223bf2ab', 'telephone': '(0351)5737760', 'name': '麦甜乐烘焙馆(文源路店)', 'city': '太原市', 'province': '山西省'}
{'area': '清徐县', 'detail_info': {'tag': '美食;蛋糕甜品店', 'price': '20.0', 'children': [], 'type': 'cater', 'overall_rating': '4.0', 'detail_url': 'http://api.map.baidu.com/place/detail?uid=5ee0b7f27c96637675e5b6f4&output=html&source=placeapi_v2', 'comment_num': '2'}, 'uid': '5ee0b7f27c96637675e5b6f4', 'address': '清源路32号', 'detail': 1, 'location': {'lng': 112.372755, 'lat': 37.616319}, 'telephone': '13613480698', 'name': '麦甜乐烘焙', 'city': '太原市', 'province': '山西省'}
{'area': '清徐县', 'detail_info': {'tag': '美食;蛋糕甜品店', 'price': '13.0', 'children': [], 'type': 'cater', 'overall_rating': '4.3', 'detail_url': 'http://api.map.baidu.com/place/detail?uid=4c35bae3c25a468382a12e48&output=html&source=placeapi_v2', 'comment_num': '12'}, 'uid': '4c35bae3c25a468382a12e48', 'address': '清徐县湖东三街64号', 'detail': 1, 'location': {'lng': 112.367319, 'lat': 37.610739}, 'street_id': '4c35bae3c25a468382a12e48', 'telephone': '13546358997', 'name': '星班客意式冰淇淋', 'city': '太原市', 'province': '山西省'}
{'area': '清徐县', 'detail_info': {'tag': '美食;蛋糕甜品店', 'price': '8.0', 'children': [], 'type': 'cater', 'overall_rating': '4.7', 'detail_url': 'http://api.map.baidu.com/place/detail?uid=fb446a6b7d2d83bd246e98f3&output=html&source=placeapi_v2', 'comment_num': '6'}, 'uid': 'fb446a6b7d2d83bd246e98f3', 'address': '通湖路40-2号', 'detail': 1, 'location': {'lng': 112.365932, 'lat': 37.610714}, 'street_id': 'fb446a6b7d2d83bd246e98f3', 'name': '牧源鲜奶吧(清徐总店)', 'city': '太原市', 'province': '山西省'}
{'area': '清徐县', 'detail_info': {'tag': '美食;蛋糕甜品店', 'children': [], 'type': 'cater', 'overall_rating': '5.0', 'detail_url': 'http://api.map.baidu.com/place/detail?uid=3545d73084db89a6ebe58235&output=html&source=placeapi_v2', 'comment_num': '1'}, 'uid': '3545d73084db89a6ebe58235', 'address': '山西省太原市清徐县王答乡王答村杨家路2号', 'detail': 1, 'location': {'lng': 112.487746, 'lat': 37.600325}, 'telephone': '15364835468', 'name': '杨家饼屋', 'city': '太原市', 'province': '山西省'}
{'area': '清徐县', 'detail_info': {'tag': '美食;蛋糕甜品店', 'price': '30.0', 'children': [], 'type': 'cater', 'overall_rating': '5.0', 'detail_url': 'http://api.map.baidu.com/place/detail?uid=6bdb9d7792ee0b2d83a00c5d&output=html&source=placeapi_v2', 'comment_num': '1'}, 'uid': '6bdb9d7792ee0b2d83a00c5d', 'address': '清徐县美锦大街104号', 'detail': 1, 'location': {'lng': 112.365718, 'lat': 37.613152}, 'street_id': '6bdb9d7792ee0b2d83a00c5d', 'telephone': '13513514245', 'name': '卡琪诺(政府店)', 'city': '太原市', 'province': '山西省'}
{'area': '清徐县', 'detail_info': {'tag': '美食;酒吧', 'children': [], 'type': 'cater', 'overall_rating': '5.0', 'detail_url': 'http://api.map.baidu.com/place/detail?uid=09f7134c0909eb7f2fb17e22&output=html&source=placeapi_v2', 'comment_num': '3'}, 'uid': '09f7134c0909eb7f2fb17e22', 'address': '凤仪街159号', 'detail': 1, 'location': {'lng': 112.370629, 'lat': 37.611413}, 'street_id': '09f7134c0909eb7f2fb17e22', 'name': '老地方酒吧(凤仪街店)', 'city': '太原市', 'province': '山西省'}
{'area': '晋源区', 'detail_info': {'type': 'cater', 'tag': '购物;商铺', 'detail_url': 'http://api.map.baidu.com/place/detail?uid=121b3195fdb931e84002453e&output=html&source=placeapi_v2', 'children': []}, 'uid': '121b3195fdb931e84002453e', 'address': '039省道中国联通旁', 'detail': 1, 'location': {'lng': 112.396661, 'lat': 37.654836}, 'telephone': '15835122626', 'name': '诚信面条店', 'city': '太原市', 'province': '山西省'}
{'area': '清徐县', 'detail_info': {'overall_rating': '4.6', 'price': '22.0', 'navi_location': {'lng': 112.51146257001, 'lat': 37.567300261045}, 'children': [], 'type': 'cater', 'tag': '美食;小吃快餐店', 'detail_url': 'http://api.map.baidu.com/place/detail?uid=026266887f1a9a104afc8dac&output=html&source=placeapi_v2', 'comment_num': '21'}, 'uid': '026266887f1a9a104afc8dac', 'address': '太原市清徐县徐沟镇民乐街42号', 'detail': 1, 'location': {'lng': 112.511957, 'lat': 37.567591}, 'telephone': '(0351)5785998', 'name': '德克士(徐沟店)', 'city': '太原市', 'province': '山西省'}
{'area': '小店区', 'detail_info': {'tag': '美食;中餐厅', 'price': '30.0', 'children': [], 'type': 'cater', 'overall_rating': '4.3', 'detail_url': 'http://api.map.baidu.com/place/detail?uid=ed937de0f366ec84c61b75f8&output=html&source=placeapi_v2', 'comment_num': '3'}, 'uid': 'ed937de0f366ec84c61b75f8', 'address': '小牛线山西工商学院南校区旁', 'detail': 1, 'location': {'lng': 112.547314, 'lat': 37.65325}, 'telephone': '13593173106', 'name': '海洋酒楼', 'city': '太原市', 'province': '山西省'}
{'area': '清徐县', 'detail_info': {'tag': '美食;其他', 'children': [], 'type': 'cater', 'overall_rating': '5.0', 'detail_url': 'http://api.map.baidu.com/place/detail?uid=5d29cdfde664ea7e43ab9aea&output=html&source=placeapi_v2', 'comment_num': '3'}, 'uid': '5d29cdfde664ea7e43ab9aea', 'address': '徐沟镇民乐街18号', 'detail': 1, 'location': {'lng': 112.511526, 'lat': 37.565797}, 'street_id': '', 'telephone': '13293888626', 'name': '七公江湖烧烤', 'city': '太原市', 'province': '山西省'}
{'area': '清徐县', 'detail_info': {'overall_rating': '4.5', 'price': '40.0', 'navi_location': {'lng': 112.51629651105, 'lat': 37.568772042558}, 'children': [], 'type': 'cater', 'tag': '美食;中餐厅', 'detail_url': 'http://api.map.baidu.com/place/detail?uid=3d12bb0c7e9dbd1f57bfff22&output=html&source=placeapi_v2', 'comment_num': '126'}, 'uid': '3d12bb0c7e9dbd1f57bfff22', 'address': '徐沟镇政府往东200米路南', 'detail': 1, 'location': {'lng': 112.516136, 'lat': 37.568894}, 'telephone': '(0351)5780868,15034058858', 'name': '味鼎轩自助', 'city': '太原市', 'province': '山西省'}
{'area': '小店区', 'detail_info': {'tag': '美食;中餐厅', 'children': [], 'type': 'cater', 'overall_rating': '0.0', 'detail_url': 'http://api.map.baidu.com/place/detail?uid=e662973fcfe5ffaea11de9e9&output=html&source=placeapi_v2', 'comment_num': '1'}, 'uid': 'e662973fcfe5ffaea11de9e9', 'address': '山西省太原市小店区太太路', 'detail': 1, 'location': {'lng': 112.588708, 'lat': 37.650945}, 'telephone': '13834229040', 'name': '食在小院', 'city': '太原市', 'province': '山西省'}
{'area': '清徐县', 'detail_info': {'tag': '美食;中餐厅', 'children': [], 'type': 'cater', 'overall_rating': '4.5', 'detail_url': 'http://api.map.baidu.com/place/detail?uid=aa18468f7dd1b3dd283a9fdf&output=html&source=placeapi_v2', 'comment_num': '2'}, 'uid': 'aa18468f7dd1b3dd283a9fdf', 'address': '徐沟镇徐沟西大街18号', 'detail': 1, 'location': {'lng': 112.515941, 'lat': 37.564657}, 'telephone': '15234175347', 'name': '新华府酒楼', 'city': '太原市', 'province': '山西省'}
{'area': '清徐县', 'detail_info': {'tag': '美食;中餐厅', 'children': [], 'type': 'cater', 'overall_rating': '5.0', 'detail_url': 'http://api.map.baidu.com/place/detail?uid=e512b4c90d02112dad080fa2&output=html&source=placeapi_v2', 'comment_num': '1'}, 'uid': 'e512b4c90d02112dad080fa2', 'address': '太原市清徐县民乐街20号', 'detail': 1, 'location': {'lng': 112.511565, 'lat': 37.566003}, 'telephone': '(0351)5780369', 'name': '杏花园酒楼', 'city': '太原市', 'province': '山西省'}
{'area': '清徐县', 'detail_info': {'tag': '美食;中餐厅', 'children': [], 'type': 'cater', 'overall_rating': '3.8', 'detail_url': 'http://api.map.baidu.com/place/detail?uid=d26134f38f90cb02931fc982&output=html&source=placeapi_v2', 'comment_num': '5'}, 'uid': 'd26134f38f90cb02931fc982', 'address': '山西省太原市清徐县民乐街117', 'detail': 1, 'location': {'lng': 112.511064, 'lat': 37.566235}, 'telephone': '15536871005,18536627377', 'name': '天天美食馆(民乐街店)', 'city': '太原市', 'province': '山西省'}
{'area': '清徐县', 'detail_info': {'tag': '美食;中餐厅', 'children': [], 'type': 'cater', 'overall_rating': '4.6', 'detail_url': 'http://api.map.baidu.com/place/detail?uid=f5a69ab1ef7e041db75f1e01&output=html&source=placeapi_v2', 'comment_num': '10'}, 'uid': 'f5a69ab1ef7e041db75f1e01', 'address': '徐沟商圈民乐街147号', 'detail': 1, 'location': {'lng': 112.512313, 'lat': 37.567396}, 'telephone': '(0351)5947888,16603453888', 'name': '重庆崽儿老火锅(徐沟店)', 'city': '太原市', 'province': '山西省'}
{'area': '小店区', 'detail_info': {'tag': '美食;中餐厅', 'children': [], 'type': 'cater', 'overall_rating': '5.0', 'detail_url': 'http://api.map.baidu.com/place/detail?uid=dc1207d240eb8f3116a190e2&output=html&source=placeapi_v2', 'comment_num': '1'}, 'uid': 'dc1207d240eb8f3116a190e2', 'address': '山西省太原市小店区小牛线', 'detail': 1, 'location': {'lng': 112.546379, 'lat': 37.651762}, 'name': '大骨头自助', 'city': '太原市', 'province': '山西省'}
{'area': '清徐县', 'detail_info': {'tag': '美食;中餐厅', 'children': [], 'type': 'cater', 'overall_rating': '5.0', 'detail_url': 'http://api.map.baidu.com/place/detail?uid=3eab448075a56d954054d75c&output=html&source=placeapi_v2', 'comment_num': '1'}, 'uid': '3eab448075a56d954054d75c', 'address': '徐沟镇徐太路徐沟汽车站南300米', 'detail': 1, 'location': {'lng': 112.529813, 'lat': 37.560477}, 'name': '兴华自助涮烤', 'city': '太原市', 'province': '山西省'}
{'area': '清徐县', 'detail_info': {'tag': '美食;中餐厅', 'children': [], 'type': 'cater', 'overall_rating': '1.0', 'detail_url': 'http://api.map.baidu.com/place/detail?uid=d7954e9098d6b90cac0457c9&output=html&source=placeapi_v2', 'comment_num': '1'}, 'uid': 'd7954e9098d6b90cac0457c9', 'address': '徐沟镇民乐街锦绣苑小区1号楼005(徐沟镇政府正对面)', 'detail': 1, 'location': {'lng': 112.513213, 'lat': 37.569325}, 'name': '搜桶水煮鱼(徐沟店)', 'city': '太原市', 'province': '山西省'}
{'area': '清徐县', 'detail_info': {'tag': '美食;中餐厅', 'children': [], 'type': 'cater', 'overall_rating': '0.0', 'detail_url': 'http://api.map.baidu.com/place/detail?uid=4b0b0899d12ae90848cc4a25&output=html&source=placeapi_v2', 'comment_num': '1'}, 'uid': '4b0b0899d12ae90848cc4a25', 'address': '西北坊村北小区商铺15号', 'detail': 1, 'location': {'lng': 112.514152, 'lat': 37.567158}, 'telephone': '13485313533', 'name': '大骨头自助火锅(西北坊店)', 'city': '太原市', 'province': '山西省'}
{'area': '清徐县', 'detail_info': {'tag': '美食;中餐厅', 'children': [], 'type': 'cater', 'overall_rating': '0.0', 'detail_url': 'http://api.map.baidu.com/place/detail?uid=72270266fdd6551f4e55478b&output=html&source=placeapi_v2', 'comment_num': '1'}, 'uid': '72270266fdd6551f4e55478b', 'address': '山西省太原市清徐县北关大街', 'detail': 1, 'location': {'lng': 112.519173, 'lat': 37.569212}, 'telephone': '(0351)5780180', 'name': '鱼鲜人家(徐沟店)', 'city': '太原市', 'province': '山西省'}
{'area': '清徐县', 'detail_info': {'type': 'cater', 'tag': '美食;蛋糕甜品店', 'detail_url': 'http://api.map.baidu.com/place/detail?uid=187c8d97904e0264a8059de4&output=html&source=placeapi_v2', 'children': []}, 'uid': '187c8d97904e0264a8059de4', 'address': '太原市清徐县环校南路与西关大街交叉口东北50米', 'detail': 1, 'location': {'lng': 112.511375, 'lat': 37.565097}, 'telephone': '13485372768', 'name': '甜丫丫烘焙工坊', 'city': '太原市', 'province': '山西省'}
{'area': '小店区', 'detail_info': {'type': 'cater', 'tag': '美食;中餐厅', 'detail_url': 'http://api.map.baidu.com/place/detail?uid=56e69df1190eba812eb17eaa&output=html&source=placeapi_v2', 'children': []}, 'uid': '56e69df1190eba812eb17eaa', 'address': '山西省太原市小店区小牛线', 'detail': 1, 'location': {'lng': 112.545742, 'lat': 37.644207}, 'name': '康乐饭店(小牛线店)', 'city': '太原市', 'province': '山西省'}
{'area': '清徐县', 'detail_info': {'type': 'cater', 'tag': '美食;中餐厅', 'detail_url': 'http://api.map.baidu.com/place/detail?uid=bf65f20f0e36543a86420e38&output=html&source=placeapi_v2', 'children': []}, 'uid': 'bf65f20f0e36543a86420e38', 'address': '东北坊村清东路商业街58号', 'detail': 1, 'location': {'lng': 112.531178, 'lat': 37.563638}, 'telephone': '18234130225', 'name': '蒙羊味道', 'city': '太原市', 'province': '山西省'}
{'area': '清徐县', 'detail_info': {'type': 'cater', 'tag': '美食;中餐厅', 'detail_url': 'http://api.map.baidu.com/place/detail?uid=7dda356c04df673ab020a80f&output=html&source=placeapi_v2', 'children': []}, 'uid': '7dda356c04df673ab020a80f', 'address': '山西省太原市清徐县徐太路', 'detail': 1, 'location': {'lng': 112.529104, 'lat': 37.562948}, 'name': '油糕片儿汤', 'city': '太原市', 'province': '山西省'}
{'area': '清徐县', 'detail_info': {'tag': '美食;小吃快餐店', 'children': [], 'type': 'cater', 'overall_rating': '5.0', 'detail_url': 'http://api.map.baidu.com/place/detail?uid=f931b356b8a7c7841ce999fd&output=html&source=placeapi_v2', 'comment_num': '1'}, 'uid': 'f931b356b8a7c7841ce999fd', 'address': '徐沟北大街与徐沟西大街交叉口东100米', 'detail': 1, 'location': {'lng': 112.52044, 'lat': 37.564402}, 'telephone': '15935611415', 'name': '温州烧鸡', 'city': '太原市', 'province': '山西省'}
{'area': '小店区', 'detail_info': {'type': 'cater', 'tag': '美食;中餐厅', 'detail_url': 'http://api.map.baidu.com/place/detail?uid=70dee488fc94fd87fd0eb0cd&output=html&source=placeapi_v2', 'children': []}, 'uid': '70dee488fc94fd87fd0eb0cd', 'address': '山西省太原市小店区小牛线', 'detail': 1, 'location': {'lng': 112.546973, 'lat': 37.655886}, 'telephone': '13453105228', 'name': '辛村乐羊子羊汤馆', 'city': '太原市', 'province': '山西省'}
{'area': '清徐县', 'detail_info': {'type': 'cater', 'tag': '美食;中餐厅', 'detail_url': 'http://api.map.baidu.com/place/detail?uid=6da0e9f41750f470ca1b959a&output=html&source=placeapi_v2', 'children': []}, 'uid': '6da0e9f41750f470ca1b959a', 'address': '校前街北50米', 'detail': 1, 'location': {'lng': 112.524778, 'lat': 37.560775}, 'name': '徐沟镇乔氏铜火锅', 'city': '太原市', 'province': '山西省'}
{'area': '小店区', 'detail_info': {'type': 'cater', 'tag': '美食;中餐厅', 'detail_url': 'http://api.map.baidu.com/place/detail?uid=6552369380e5a97efbdc8500&output=html&source=placeapi_v2', 'children': []},